[
  {
    "callsign": "UAL861",
    "altitude": 20728,
    "speed": 482,
    "lat": -21.934296,
    "long": -46.372131,
    "heading": 171.2,
    "aircraftType": "B763",
    "airportFrom": {
      "code": "IAD",
      "lat": 38.9556,
      "long": -77.4484,
      "name": "Dulles International Airport",
      "city": "Washington",
      "state": "Virginia",
      "country": "United States"
    },
    "airportTo": {
      "code": "GRU",
      "lat": -23.435,
      "long": -46.4728,
      "name": "Governador Andre Franco Montoro International Ai",
      "city": "Guarulhos",
      "state": "Sao Paulo",
      "country": "Brazil"
    },
    "ageInYears": 25,
    "flightPercentComplete": 97.8144460500848
  },
  {
    "callsign": "UAL992",
    "altitude": 16325,
    "grounded": false,
    "speed": 383.9,
    "lat": 41.994827,
    "long": -87.366839,
    "heading": 107.6,
    "aircraftType": "B739",
    "airportFrom": {
      "code": "ORD",
      "lat": 41.9796,
      "long": -87.8825,
      "name": "Chicago O'Hare International Airport",
      "city": "Chicago",
      "state": "Illinois",
      "country": "United States"
    },
    "airportTo": {
      "code": "BOS",
      "lat": 42.3717,
      "long": -71.0281,
      "name": "Gen E L Logan International Airport",
      "city": "Boston",
      "state": "Massachusetts",
      "country": "United States"
    },
    "ageInYears": 9,
    "flightPercentComplete": 3.0623898354673273
  },
  {
    "callsign": "UAL363",
    "altitude": 12600,
    "grounded": false,
    "speed": 387,
    "lat": 40.793701,
    "long": -74.753784,
    "heading": 292.3,
    "aircraftType": "B764",
    "airportFrom": {
      "code": "EWR",
      "lat": 40.6924,
      "long": -74.1843,
      "name": "Newark International Airport",
      "city": "Newark",
      "state": "New Jersey",
      "country": "United States"
    },
    "airportTo": {
      "code": "HNL",
      "lat": 21.3358,
      "long": -157.919,
      "name": "Honolulu International Airport",
      "city": "Honolulu",
      "state": "Hawaii",
      "country": "United States"
    },
    "ageInYears": 16,
    "flightPercentComplete": 0.6182455640087459
  },
  {
    "callsign": "UAL1853",
    "altitude": 12650,
    "grounded": false,
    "speed": 379.3,
    "lat": 26.48017,
    "long": -80.316978,
    "heading": 317.1,
    "aircraftType": "B739",
    "airportFrom": {
      "code": "PHL",
      "lat": 39.8768,
      "long": -75.2419,
      "name": "Philadelphia International Airport",
      "city": "Philadelphia",
      "state": "Pennsylvania",
      "country": "United States"
    },
    "airportTo": {
      "code": "MSY",
      "lat": 29.983,
      "long": -90.2569,
      "name": "New Orleans International Airport",
      "city": "Kenner",
      "state": "Louisiana",
      "country": "United States"
    },
    "airportStops": [
      {
        "code": "SFO",
        "lat": 37.6148,
        "long": -122.392,
        "name": "San Francisco International Airport",
        "city": "San Francisco",
        "state": "California",
        "country": "United States"
      }
    ],
    "ageInYears": 9,
    "flightPercentComplete": 40.16135165754194
  },
  {
    "callsign": "UAL1008",
    "altitude": 19525,
    "grounded": false,
    "speed": 419.1,
    "lat": 4.438522,
    "long": -74.545495,
    "heading": 130.6,
    "aircraftType": "B738",
    "airportFrom": {
      "code": "BOG",
      "lat": 4.69895,
      "long": -74.1435,
      "name": "Eldorado International Airport",
      "city": "Fontibón",
      "state": "Distrito Especial",
      "country": "Colombia"
    },
    "airportTo": {
      "code": "IAH",
      "lat": 29.9784,
      "long": -95.3424,
      "name": "George Bush Intercontinental Airport",
      "city": "Houston",
      "state": "Texas",
      "country": "United States"
    },
    "ageInYears": 8,
    "flightPercentComplete": 0.06653348479244148
  },
  {
    "callsign": "UAL2123",
    "altitude": 16975,
    "grounded": false,
    "speed": 396,
    "lat": 30.440276,
    "long": -98.209589,
    "heading": 277.1,
    "aircraftType": "B739",
    "airportFrom": {
      "code": "AUS",
      "lat": 30.2027,
      "long": -97.6653,
      "name": "Austin-Bergstrom International Airport",
      "city": "Austin",
      "state": "Texas",
      "country": "United States"
    },
    "airportTo": {
      "code": "SFO",
      "lat": 37.6148,
      "long": -122.392,
      "name": "San Francisco International Airport",
      "city": "San Francisco",
      "state": "California",
      "country": "United States"
    },
    "ageInYears": 4,
    "flightPercentComplete": 2.4216795275233904
  },
  {
    "callsign": "UAL1579",
    "altitude": 15950,
    "grounded": false,
    "speed": 389,
    "lat": 30.620178,
    "long": -95.69738,
    "heading": 335.1,
    "aircraftType": "B739",
    "airportFrom": {
      "code": "SFO",
      "lat": 37.6148,
      "long": -122.392,
      "name": "San Francisco International Airport",
      "city": "San Francisco",
      "state": "California",
      "country": "United States"
    },
    "airportTo": {
      "code": "ORD",
      "lat": 41.9796,
      "long": -87.8825,
      "name": "Chicago O'Hare International Airport",
      "city": "Chicago",
      "state": "Illinois",
      "country": "United States"
    },
    "ageInYears": 10,
    "flightPercentComplete": 51.38061627227641
  },
  {
    "callsign": "UAL99",
    "altitude": 39000,
    "grounded": false,
    "speed": 507,
    "lat": 31.282267,
    "long": -121.581192,
    "heading": 51.7,
    "aircraftType": "B789",
    "airportFrom": {
      "code": "MEL",
      "lat": -37.6759,
      "long": 144.844,
      "name": "Melbourne International Airport",
      "city": "Melbourne",
      "state": "Victoria",
      "country": "Australia"
    },
    "airportTo": {
      "code": "LAX",
      "lat": 33.9456,
      "long": -118.391,
      "name": "Los Angeles International Airport",
      "city": "Los Angeles",
      "state": "California",
      "country": "United States"
    },
    "flightPercentComplete": 96.70326629061438
  },
  {
    "callsign": "UAL1661",
    "altitude": 19500,
    "grounded": false,
    "speed": 420.6,
    "lat": 38.53981,
    "long": -76.755384,
    "heading": 166,
    "aircraftType": "B739",
    "airportFrom": {
      "code": "IAD",
      "lat": 38.9556,
      "long": -77.4484,
      "name": "Dulles International Airport",
      "city": "Washington",
      "state": "Virginia",
      "country": "United States"
    },
    "airportTo": {
      "code": "PUJ",
      "lat": 18.5675,
      "long": -68.3469,
      "name": "Punta Cana Airport",
      "city": "Salvaleón de Higüey",
      "state": "La Altagracia",
      "country": "Dominican Republic"
    },
    "ageInYears": 8,
    "flightPercentComplete": 2.7193657556274786
  },
  {
    "callsign": "UAL2079",
    "altitude": 23875,
    "grounded": false,
    "speed": 450.3,
    "lat": 40.437195,
    "long": -82.382629,
    "heading": 209,
    "aircraftType": "B739",
    "airportFrom": {
      "code": "DCA",
      "lat": 38.849,
      "long": -77.0438,
      "name": "Washington National Airport",
      "city": "Arlington",
      "state": "Virginia",
      "country": "United States"
    },
    "airportTo": {
      "code": "ORD",
      "lat": 41.9796,
      "long": -87.8825,
      "name": "Chicago O'Hare International Airport",
      "city": "Chicago",
      "state": "Illinois",
      "country": "United States"
    },
    "ageInYears": 6,
    "flightPercentComplete": 49.93639885425974
  },
  {
    "callsign": "UAL1041",
    "altitude": 27975,
    "grounded": false,
    "speed": 485.4,
    "lat": 29.916962,
    "long": -93.445237,
    "heading": 83.3,
    "aircraftType": "B738",
    "airportFrom": {
      "code": "AUA",
      "lat": 12.5022,
      "long": -70.0139,
      "name": "Reina Beatrix International Airport",
      "city": "Aruba",
      "state": "",
      "country": "Aruba"
    },
    "airportTo": {
      "code": "EWR",
      "lat": 40.6924,
      "long": -74.1843,
      "name": "Newark International Airport",
      "city": "Newark",
      "state": "New Jersey",
      "country": "United States"
    },
    "flightPercentComplete": 33.20152389982488
  },
  {
    "callsign": "UAL183",
    "altitude": 3650,
    "grounded": false,
    "speed": 189.1,
    "lat": 14.650827,
    "long": 121.225313,
    "heading": 162.1,
    "aircraftType": "B738",
    "airportFrom": {
      "code": "GUM",
      "lat": 13.4833,
      "long": 144.796,
      "name": "Antonio B Won Pat International Airport",
      "city": "Hagåtña",
      "state": "Guam",
      "country": "United States"
    },
    "airportTo": {
      "code": "MNL",
      "lat": 14.5114,
      "long": 121.016,
      "name": "Ninoy Aquino International Airport",
      "city": "Parañaque",
      "state": "National Capital Region",
      "country": "Philippines"
    },
    "ageInYears": 13,
    "flightPercentComplete": 98.93480655947012
  },
  {
    "callsign": "UAL812",
    "altitude": 28975,
    "grounded": false,
    "speed": 473,
    "lat": 46.750702,
    "long": -115.507401,
    "heading": 125,
    "aircraftType": "A320",
    "airportFrom": {
      "code": "GEG",
      "lat": 47.625,
      "long": -117.538,
      "name": "Spokane International Airport",
      "city": "Spokane",
      "state": "Washington",
      "country": "United States"
    },
    "airportTo": {
      "code": "DFW",
      "lat": 32.9222,
      "long": -97.0409,
      "name": "Fort Worth International Airport",
      "city": "Dallas",
      "state": "Texas",
      "country": "United States"
    },
    "airportStops": [
      {
        "code": "DEN",
        "lat": 39.8396,
        "long": -104.672,
        "name": "Denver International Airport",
        "city": "Denver",
        "state": "Colorado",
        "country": "United States"
      }
    ],
    "ageInYears": 19,
    "flightPercentComplete": 7.629251429966
  },
  {
    "callsign": "UAL345",
    "altitude": 34000,
    "grounded": false,
    "speed": 387.2,
    "lat": 39.054886,
    "long": -79.728082,
    "heading": 274.6,
    "aircraftType": "B763",
    "airportFrom": {
      "code": "IAD",
      "lat": 38.9556,
      "long": -77.4484,
      "name": "Dulles International Airport",
      "city": "Washington",
      "state": "Virginia",
      "country": "United States"
    },
    "airportTo": {
      "code": "HNL",
      "lat": 21.3358,
      "long": -157.919,
      "name": "Honolulu International Airport",
      "city": "Honolulu",
      "state": "Hawaii",
      "country": "United States"
    },
    "ageInYears": 25,
    "flightPercentComplete": 2.5272256968752016
  },
  {
    "callsign": "UAL65",
    "altitude": 33000,
    "grounded": false,
    "speed": 465,
    "lat": 41.137095,
    "long": -26.067061,
    "heading": 269.3,
    "aircraftType": "B763",
    "airportFrom": {
      "code": "LIS",
      "lat": 38.7701,
      "long": -9.13775,
      "name": "Lisbon Airport",
      "city": "Lisbon",
      "state": "Lisbon",
      "country": "Portugal"
    },
    "airportTo": {
      "code": "EWR",
      "lat": 40.6924,
      "long": -74.1843,
      "name": "Newark International Airport",
      "city": "Newark",
      "state": "New Jersey",
      "country": "United States"
    },
    "ageInYears": 26,
    "flightPercentComplete": 26.573863552272282
  },
  {
    "callsign": "UAL1144",
    "altitude": 36000,
    "grounded": false,
    "speed": 458.5,
    "lat": 39.22522,
    "long": -113.370965,
    "heading": 252,
    "aircraftType": "B739",
    "airportFrom": {
      "code": "SNA",
      "lat": 33.6813,
      "long": -117.859,
      "name": "John Wayne Airport",
      "city": "Santa Ana",
      "state": "California",
      "country": "United States"
    },
    "airportTo": {
      "code": "IAH",
      "lat": 29.9784,
      "long": -95.3424,
      "name": "George Bush Intercontinental Airport",
      "city": "Houston",
      "state": "Texas",
      "country": "United States"
    },
    "ageInYears": 5,
    "flightPercentComplete": 10.336603412391987
  },
  {
    "callsign": "UAL605",
    "altitude": 32000,
    "grounded": false,
    "speed": 398.4,
    "lat": 39.038773,
    "long": -79.468112,
    "heading": 274.8,
    "aircraftType": "B738",
    "airportFrom": {
      "code": "DCA",
      "lat": 38.849,
      "long": -77.0438,
      "name": "Washington National Airport",
      "city": "Arlington",
      "state": "Virginia",
      "country": "United States"
    },
    "airportTo": {
      "code": "DEN",
      "lat": 39.8396,
      "long": -104.672,
      "name": "Denver International Airport",
      "city": "Denver",
      "state": "Colorado",
      "country": "United States"
    },
    "airportStops": [
      {
        "code": "ORD",
        "lat": 41.9796,
        "long": -87.8825,
        "name": "Chicago O'Hare International Airport",
        "city": "Chicago",
        "state": "Illinois",
        "country": "United States"
      }
    ],
    "ageInYears": 10,
    "flightPercentComplete": 8.858637202121344
  },
  {
    "callsign": "UAL4",
    "altitude": 16175,
    "grounded": false,
    "speed": 428.8,
    "lat": 52.33505,
    "long": -0.590751,
    "heading": 354.8,
    "aircraftType": "B772",
    "airportFrom": {
      "code": "LHR",
      "lat": 51.4703,
      "long": -0.45342,
      "name": "London Heathrow Airport",
      "city": "Hounslow",
      "state": "England",
      "country": "United Kingdom"
    },
    "airportTo": {
      "code": "IAH",
      "lat": 29.9784,
      "long": -95.3424,
      "name": "George Bush Intercontinental Airport",
      "city": "Houston",
      "state": "Texas",
      "country": "United States"
    },
    "ageInYears": 19,
    "flightPercentComplete": 0.5947388374429652
  },
  {
    "callsign": "UAL59",
    "altitude": 32000,
    "grounded": false,
    "speed": 524.6,
    "lat": 52.074097,
    "long": 8.923416,
    "heading": 337.6,
    "aircraftType": "B77W",
    "airportFrom": {
      "code": "FRA",
      "lat": 50.0483,
      "long": 8.57041,
      "name": "Frankfurt International Airport",
      "city": "Frankfurt",
      "state": "Hesse",
      "country": "Germany"
    },
    "airportTo": {
      "code": "SFO",
      "lat": 37.6148,
      "long": -122.392,
      "name": "San Francisco International Airport",
      "city": "San Francisco",
      "state": "California",
      "country": "United States"
    },
    "ageInYears": 2,
    "flightPercentComplete": 1.801301858610127
  },
  {
    "callsign": "UAL762",
    "altitude": 34000,
    "grounded": false,
    "speed": 446.1,
    "lat": 37.651657,
    "long": -79.780202,
    "heading": 237.5,
    "aircraftType": "B763",
    "airportFrom": {
      "code": "IAD",
      "lat": 38.9556,
      "long": -77.4484,
      "name": "Dulles International Airport",
      "city": "Washington",
      "state": "Virginia",
      "country": "United States"
    },
    "airportTo": {
      "code": "IAH",
      "lat": 29.9784,
      "long": -95.3424,
      "name": "George Bush Intercontinental Airport",
      "city": "Houston",
      "state": "Texas",
      "country": "United States"
    },
    "ageInYears": 25,
    "flightPercentComplete": 12.87183614300057
  },
  {
    "callsign": "UAL2021",
    "altitude": 32425,
    "grounded": false,
    "speed": 454.3,
    "lat": 37.340202,
    "long": -76.564676,
    "heading": 174.2,
    "aircraftType": "B739",
    "airportFrom": {
      "code": "BWI",
      "lat": 39.1841,
      "long": -76.6745,
      "name": "Baltimore-Washington International Thurgood Mars",
      "city": "Baltimore",
      "state": "Maryland",
      "country": "United States"
    },
    "airportTo": {
      "code": "IAH",
      "lat": 29.9784,
      "long": -95.3424,
      "name": "George Bush Intercontinental Airport",
      "city": "Houston",
      "state": "Texas",
      "country": "United States"
    },
    "ageInYears": 5,
    "flightPercentComplete": 3.5156306026407957
  },
  {
    "callsign": "UAL1229",
    "altitude": 35000,
    "grounded": false,
    "speed": 490.8,
    "lat": 34.100784,
    "long": -122.592119,
    "heading": 86.7,
    "aircraftType": "B739",
    "airportFrom": {
      "code": "HNL",
      "lat": 21.3358,
      "long": -157.919,
      "name": "Honolulu International Airport",
      "city": "Honolulu",
      "state": "Hawaii",
      "country": "United States"
    },
    "airportTo": {
      "code": "LAX",
      "lat": 33.9456,
      "long": -118.391,
      "name": "Los Angeles International Airport",
      "city": "Los Angeles",
      "state": "California",
      "country": "United States"
    },
    "ageInYears": 4,
    "flightPercentComplete": 90.56769849245346
  },
  {
    "callsign": "UAL977",
    "altitude": 36775,
    "grounded": false,
    "speed": 442,
    "lat": 41.98416,
    "long": -76.930549,
    "heading": 286.5,
    "aircraftType": "B772",
    "airportFrom": {
      "code": "DXB",
      "lat": 25.2509,
      "long": 55.3629,
      "name": "Dubai International Airport",
      "city": "Dubai",
      "state": "Dubai",
      "country": "United Arab Emirates"
    },
    "airportTo": {
      "code": "IAD",
      "lat": 38.9556,
      "long": -77.4484,
      "name": "Dulles International Airport",
      "city": "Washington",
      "state": "Virginia",
      "country": "United States"
    },
    "ageInYears": 21,
    "flightPercentComplete": 97.0090238465328
  },
  {
    "callsign": "UAL957",
    "altitude": 34000,
    "grounded": false,
    "speed": 413,
    "lat": 49.073414,
    "long": -53.733768,
    "heading": 248,
    "aircraftType": "B763",
    "airportFrom": {
      "code": "GVA",
      "lat": 46.2329,
      "long": 6.10682,
      "name": "Geneva Airport",
      "city": "Geneva",
      "state": "Canton of Geneva",
      "country": "Switzerland"
    },
    "airportTo": {
      "code": "EWR",
      "lat": 40.6924,
      "long": -74.1843,
      "name": "Newark International Airport",
      "city": "Newark",
      "state": "New Jersey",
      "country": "United States"
    },
    "ageInYears": 20,
    "flightPercentComplete": 70.24362139347107
  },
  {
    "callsign": "UAL905",
    "altitude": 34000,
    "grounded": false,
    "speed": 403,
    "lat": 42.986618,
    "long": -82.342274,
    "heading": 269.4,
    "aircraftType": "A320",
    "airportFrom": {
      "code": "EWR",
      "lat": 40.6924,
      "long": -74.1843,
      "name": "Newark International Airport",
      "city": "Newark",
      "state": "New Jersey",
      "country": "United States"
    },
    "airportTo": {
      "code": "DEN",
      "lat": 39.8396,
      "long": -104.672,
      "name": "Denver International Airport",
      "city": "Denver",
      "state": "Colorado",
      "country": "United States"
    },
    "ageInYears": 17,
    "flightPercentComplete": 26.662469247971586
  },
  {
    "callsign": "UAL513",
    "altitude": 33850,
    "grounded": false,
    "speed": 473,
    "lat": 28.08046,
    "long": -85.946518,
    "heading": 289,
    "aircraftType": "A320",
    "airportFrom": {
      "code": "EWR",
      "lat": 40.6924,
      "long": -74.1843,
      "name": "Newark International Airport",
      "city": "Newark",
      "state": "New Jersey",
      "country": "United States"
    },
    "airportTo": {
      "code": "SAN",
      "lat": 32.7299,
      "long": -117.195,
      "name": "San Diego International Airport",
      "city": "San Diego",
      "state": "California",
      "country": "United States"
    },
    "ageInYears": 13,
    "flightPercentComplete": 22.199364176664137
  },
  {
    "callsign": "UAL1962",
    "altitude": 35025,
    "grounded": false,
    "speed": 457.9,
    "lat": 32.886887,
    "long": -97.17984,
    "heading": 26.7,
    "aircraftType": "A320",
    "airportFrom": {
      "code": "SAT",
      "lat": 29.5252,
      "long": -98.4729,
      "name": "San Antonio International Airport",
      "city": "San Antonio",
      "state": "Texas",
      "country": "United States"
    },
    "airportTo": {
      "code": "ORD",
      "lat": 41.9796,
      "long": -87.8825,
      "name": "Chicago O'Hare International Airport",
      "city": "Chicago",
      "state": "Illinois",
      "country": "United States"
    },
    "ageInYears": 16,
    "flightPercentComplete": 22.561996972193967
  },
  {
    "callsign": "UAL1634",
    "altitude": 31925,
    "grounded": false,
    "speed": 424.5,
    "lat": 38.228851,
    "long": -78.629443,
    "heading": 238,
    "aircraftType": "B739",
    "airportFrom": {
      "code": "SFO",
      "lat": 37.6148,
      "long": -122.392,
      "name": "San Francisco International Airport",
      "city": "San Francisco",
      "state": "California",
      "country": "United States"
    },
    "airportTo": {
      "code": "ORD",
      "lat": 41.9796,
      "long": -87.8825,
      "name": "Chicago O'Hare International Airport",
      "city": "Chicago",
      "state": "Illinois",
      "country": "United States"
    },
    "ageInYears": 6,
    "flightPercentComplete": 70.00862685168111
  },
  {
    "callsign": "UAL1886",
    "altitude": 29975,
    "grounded": false,
    "speed": 419.5,
    "lat": 40.764084,
    "long": -76.898926,
    "heading": 281.3,
    "aircraftType": "A320",
    "airportFrom": {
      "code": "EWR",
      "lat": 40.6924,
      "long": -74.1843,
      "name": "Newark International Airport",
      "city": "Newark",
      "state": "New Jersey",
      "country": "United States"
    },
    "airportTo": {
      "code": "FLL",
      "lat": 26.0722,
      "long": -80.1354,
      "name": "Fort Lauderdale Hollywood International Airport",
      "city": "Dania Beach",
      "state": "Florida",
      "country": "United States"
    },
    "ageInYears": 23,
    "flightPercentComplete": 3.2163478432651327
  },
  {
    "callsign": "UAL1037",
    "altitude": 24650,
    "grounded": false,
    "speed": 502,
    "lat": 40.502655,
    "long": -73.057129,
    "heading": 5.6,
    "aircraftType": "B739",
    "airportFrom": {
      "code": "MCO",
      "lat": 28.4418,
      "long": -81.3115,
      "name": "Orlando International Airport",
      "city": "Orlando",
      "state": "Florida",
      "country": "United States"
    },
    "airportTo": {
      "code": "ORD",
      "lat": 41.9796,
      "long": -87.8825,
      "name": "Chicago O'Hare International Airport",
      "city": "Chicago",
      "state": "Illinois",
      "country": "United States"
    },
    "ageInYears": 10,
    "flightPercentComplete": 22.821111657058545
  },
  {
    "callsign": "UAL2051",
    "altitude": 30000,
    "grounded": false,
    "speed": 475.2,
    "lat": 31.001678,
    "long": -84.883925,
    "heading": 315.2,
    "aircraftType": "B739",
    "airportFrom": {
      "code": "TPA",
      "lat": 27.9744,
      "long": -82.5356,
      "name": "Tampa International Airport",
      "city": "Tampa",
      "state": "Florida",
      "country": "United States"
    },
    "airportTo": {
      "code": "SFO",
      "lat": 37.6148,
      "long": -122.392,
      "name": "San Francisco International Airport",
      "city": "San Francisco",
      "state": "California",
      "country": "United States"
    },
    "ageInYears": 5,
    "flightPercentComplete": 9.014856499117984
  },
  {
    "callsign": "UAL1523",
    "altitude": 36975,
    "grounded": false,
    "speed": 483.5,
    "lat": 38.402431,
    "long": -70.91018,
    "heading": 147.3,
    "aircraftType": "B764",
    "airportFrom": {
      "code": "IAH",
      "lat": 29.9784,
      "long": -95.3424,
      "name": "George Bush Intercontinental Airport",
      "city": "Houston",
      "state": "Texas",
      "country": "United States"
    },
    "airportTo": {
      "code": "BOS",
      "lat": 42.3717,
      "long": -71.0281,
      "name": "Gen E L Logan International Airport",
      "city": "Boston",
      "state": "Massachusetts",
      "country": "United States"
    },
    "ageInYears": 16,
    "flightPercentComplete": 82.80035633467739
  },
  {
    "callsign": "UAL270",
    "altitude": 34000,
    "grounded": false,
    "speed": 420.1,
    "lat": 40.822495,
    "long": -80.905823,
    "heading": 299.7,
    "aircraftType": "B739",
    "airportFrom": {
      "code": "BWI",
      "lat": 39.1841,
      "long": -76.6745,
      "name": "Baltimore-Washington International Thurgood Mars",
      "city": "Baltimore",
      "state": "Maryland",
      "country": "United States"
    },
    "airportTo": {
      "code": "BOI",
      "lat": 43.5709,
      "long": -116.222,
      "name": "Boise Air Terminal",
      "city": "Boise",
      "state": "Idaho",
      "country": "United States"
    },
    "airportStops": [
      {
        "code": "DEN",
        "lat": 39.8396,
        "long": -104.672,
        "name": "Denver International Airport",
        "city": "Denver",
        "state": "Colorado",
        "country": "United States"
      }
    ],
    "ageInYears": 10,
    "flightPercentComplete": 12.126658699222947
  },
  {
    "callsign": "UAL796",
    "altitude": 34000,
    "grounded": false,
    "speed": 398.8,
    "lat": 39.445816,
    "long": -82.103875,
    "heading": 287.7,
    "aircraftType": "B739",
    "airportFrom": {
      "code": "IAD",
      "lat": 38.9556,
      "long": -77.4484,
      "name": "Dulles International Airport",
      "city": "Washington",
      "state": "Virginia",
      "country": "United States"
    },
    "airportTo": {
      "code": "LAS",
      "lat": 36.0806,
      "long": -115.143,
      "name": "Mccarran International Airport",
      "city": "Las Vegas",
      "state": "Nevada",
      "country": "United States"
    },
    "ageInYears": 4,
    "flightPercentComplete": 12.190959077041953
  },
  {
    "callsign": "UAL776",
    "altitude": 25000,
    "grounded": false,
    "speed": 418.2,
    "lat": 41.258736,
    "long": -85.449538,
    "heading": 271.9,
    "aircraftType": "B738",
    "airportFrom": {
      "code": "ORD",
      "lat": 41.9796,
      "long": -87.8825,
      "name": "Chicago O'Hare International Airport",
      "city": "Chicago",
      "state": "Illinois",
      "country": "United States"
    },
    "airportTo": {
      "code": "MCO",
      "lat": 28.4418,
      "long": -81.3115,
      "name": "Orlando International Airport",
      "city": "Orlando",
      "state": "Florida",
      "country": "United States"
    },
    "ageInYears": 2,
    "flightPercentComplete": 8.912841235581858
  },
  {
    "callsign": "UAL739",
    "altitude": 36000,
    "grounded": false,
    "speed": 468,
    "lat": 31.250519,
    "long": -85.172047,
    "heading": 315.1,
    "aircraftType": "B752",
    "airportFrom": {
      "code": "MCO",
      "lat": 28.4418,
      "long": -81.3115,
      "name": "Orlando International Airport",
      "city": "Orlando",
      "state": "Florida",
      "country": "United States"
    },
    "airportTo": {
      "code": "PHX",
      "lat": 33.4376,
      "long": -112.03,
      "name": "Sky Harbor International Airport",
      "city": "Phoenix",
      "state": "Arizona",
      "country": "United States"
    },
    "airportStops": [
      {
        "code": "DEN",
        "lat": 39.8396,
        "long": -104.672,
        "name": "Denver International Airport",
        "city": "Denver",
        "state": "Colorado",
        "country": "United States"
      }
    ],
    "ageInYears": 20,
    "flightPercentComplete": 14.909203208664245
  },
  {
    "callsign": "UAL785",
    "altitude": 10425,
    "grounded": false,
    "speed": 366.5,
    "lat": 41.887115,
    "long": -82.320494,
    "heading": 113.1,
    "aircraftType": "B738",
    "airportFrom": {
      "code": "CLE",
      "lat": 41.4115,
      "long": -81.8339,
      "name": "Hopkins International Airport",
      "city": "Cleveland",
      "state": "Ohio",
      "country": "United States"
    },
    "airportTo": {
      "code": "ORD",
      "lat": 41.9796,
      "long": -87.8825,
      "name": "Chicago O'Hare International Airport",
      "city": "Chicago",
      "state": "Illinois",
      "country": "United States"
    },
    "ageInYears": 12,
    "flightPercentComplete": 9.075427060221674
  },
  {
    "callsign": "UAL872",
    "altitude": 35000,
    "grounded": false,
    "speed": 492,
    "lat": 37.465302,
    "long": -126.112177,
    "heading": 93.6,
    "aircraftType": "B773",
    "airportFrom": {
      "code": "TPE",
      "lat": 25.081,
      "long": 121.237,
      "name": "Taiwan Taoyuan International Airport",
      "city": "Taoyuan City",
      "state": "Taiwan Province",
      "country": "Taiwan"
    },
    "airportTo": {
      "code": "SFO",
      "lat": 37.6148,
      "long": -122.392,
      "name": "San Francisco International Airport",
      "city": "San Francisco",
      "state": "California",
      "country": "United States"
    },
    "ageInYears": 2,
    "flightPercentComplete": 96.83912318523022
  },
  {
    "callsign": "UAL233",
    "altitude": 35975,
    "grounded": false,
    "speed": 448,
    "lat": 38.261982,
    "long": -117.125481,
    "heading": 243.9,
    "aircraftType": "A319",
    "airportFrom": {
      "code": "SFO",
      "lat": 37.6148,
      "long": -122.392,
      "name": "San Francisco International Airport",
      "city": "San Francisco",
      "state": "California",
      "country": "United States"
    },
    "airportTo": {
      "code": "EWR",
      "lat": 40.6924,
      "long": -74.1843,
      "name": "Newark International Airport",
      "city": "Newark",
      "state": "New Jersey",
      "country": "United States"
    },
    "ageInYears": 21,
    "flightPercentComplete": 11.166092183670262
  },
  {
    "callsign": "UAL1110",
    "altitude": 11050,
    "grounded": false,
    "speed": 297.5,
    "lat": 34.111478,
    "long": -118.87207,
    "heading": 115.3,
    "aircraftType": "B738",
    "airportFrom": {
      "code": "OGG",
      "lat": 20.8926,
      "long": -156.441,
      "name": "Kahului Airport",
      "city": "Kahului",
      "state": "Hawaii",
      "country": "United States"
    },
    "airportTo": {
      "code": "LAX",
      "lat": 33.9456,
      "long": -118.391,
      "name": "Los Angeles International Airport",
      "city": "Los Angeles",
      "state": "California",
      "country": "United States"
    },
    "ageInYears": 8,
    "flightPercentComplete": 98.79909429080197
  },
  {
    "callsign": "UAL282",
    "altitude": 32000,
    "grounded": false,
    "speed": 419.6,
    "lat": 41.220428,
    "long": -80.694641,
    "heading": 277.5,
    "aircraftType": "B752",
    "airportFrom": {
      "code": "EWR",
      "lat": 40.6924,
      "long": -74.1843,
      "name": "Newark International Airport",
      "city": "Newark",
      "state": "New Jersey",
      "country": "United States"
    },
    "airportTo": {
      "code": "SMF",
      "lat": 38.683,
      "long": -121.591,
      "name": "Sacramento International Airport",
      "city": "Sacramento",
      "state": "California",
      "country": "United States"
    },
    "airportStops": [
      {
        "code": "DEN",
        "lat": 39.8396,
        "long": -104.672,
        "name": "Denver International Airport",
        "city": "Denver",
        "state": "Colorado",
        "country": "United States"
      }
    ],
    "ageInYears": 20,
    "flightPercentComplete": 13.651418039699248
  },
  {
    "callsign": "UAL1896",
    "altitude": 35000,
    "grounded": false,
    "speed": 451.8,
    "lat": 41.069827,
    "long": -97.105408,
    "heading": 80.8,
    "aircraftType": "B739",
    "airportFrom": {
      "code": "BOS",
      "lat": 42.3717,
      "long": -71.0281,
      "name": "Gen E L Logan International Airport",
      "city": "Boston",
      "state": "Massachusetts",
      "country": "United States"
    },
    "airportTo": {
      "code": "LAX",
      "lat": 33.9456,
      "long": -118.391,
      "name": "Los Angeles International Airport",
      "city": "Los Angeles",
      "state": "California",
      "country": "United States"
    },
    "ageInYears": 5,
    "flightPercentComplete": 51.52187977854415
  },
  {
    "callsign": "UAL1645",
    "altitude": 32675,
    "grounded": false,
    "speed": 419.5,
    "lat": 41.252731,
    "long": -81.031473,
    "heading": 274.8,
    "aircraftType": "A320",
    "airportFrom": {
      "code": "PVR",
      "lat": 20.6819,
      "long": -105.248,
      "name": "Lic Gustavo Diaz Ordaz International Airport",
      "city": "Puerto Vallarta",
      "state": "Jalisco",
      "country": "Mexico"
    },
    "airportTo": {
      "code": "DEN",
      "lat": 39.8396,
      "long": -104.672,
      "name": "Denver International Airport",
      "city": "Denver",
      "state": "Colorado",
      "country": "United States"
    },
    "ageInYears": 24,
    "flightPercentComplete": 6.26245146584643
  },
  {
    "callsign": "UAL2089",
    "altitude": 30000,
    "grounded": false,
    "speed": 419.5,
    "lat": 41.340203,
    "long": -87.129198,
    "heading": 274.8,
    "aircraftType": "B739",
    "airportFrom": {
      "code": "FRA",
      "lat": 50.0483,
      "long": 8.57041,
      "name": "Frankfurt International Airport",
      "city": "Frankfurt",
      "state": "Hesse",
      "country": "Germany"
    },
    "airportTo": {
      "code": "SFO",
      "lat": 37.6148,
      "long": -122.392,
      "name": "San Francisco International Airport",
      "city": "San Francisco",
      "state": "California",
      "country": "United States"
    },
    "airportStops": [
      {
        "code": "ORD",
        "lat": 41.9796,
        "long": -87.8825,
        "name": "Chicago O'Hare International Airport",
        "city": "Chicago",
        "state": "Illinois",
        "country": "United States"
      }
    ],
    "ageInYears": 6,
    "flightPercentComplete": 66.8402311696447
  },
  {
    "callsign": "UAL339",
    "altitude": 32000,
    "grounded": false,
    "speed": 433.1,
    "lat": 43.285446,
    "long": -76.116794,
    "heading": 270.9,
    "aircraftType": "B739",
    "airportFrom": {
      "code": "BOS",
      "lat": 42.3717,
      "long": -71.0281,
      "name": "Gen E L Logan International Airport",
      "city": "Boston",
      "state": "Massachusetts",
      "country": "United States"
    },
    "airportTo": {
      "code": "DEN",
      "lat": 39.8396,
      "long": -104.672,
      "name": "Denver International Airport",
      "city": "Denver",
      "state": "Colorado",
      "country": "United States"
    },
    "ageInYears": 4,
    "flightPercentComplete": 14.920877420181334
  },
  {
    "callsign": "UAL22",
    "altitude": 35975,
    "grounded": false,
    "speed": 430,
    "lat": 49.129211,
    "long": -59.251591,
    "heading": 239.9,
    "aircraftType": "B772",
    "airportFrom": {
      "code": "DUB",
      "lat": 53.4272,
      "long": -6.24418,
      "name": "Dublin Airport",
      "city": "Cloghran",
      "state": "",
      "country": "Ireland"
    },
    "airportTo": {
      "code": "EWR",
      "lat": 40.6924,
      "long": -74.1843,
      "name": "Newark International Airport",
      "city": "Newark",
      "state": "New Jersey",
      "country": "United States"
    },
    "ageInYears": 18,
    "flightPercentComplete": 70.74936437653861
  },
  {
    "callsign": "UAL410",
    "altitude": 35000,
    "grounded": false,
    "speed": 451,
    "lat": 40.494301,
    "long": -115.784416,
    "heading": 87,
    "aircraftType": "B739",
    "airportFrom": {
      "code": "SMF",
      "lat": 38.683,
      "long": -121.591,
      "name": "Sacramento International Airport",
      "city": "Sacramento",
      "state": "California",
      "country": "United States"
    },
    "airportTo": {
      "code": "EWR",
      "lat": 40.6924,
      "long": -74.1843,
      "name": "Newark International Airport",
      "city": "Newark",
      "state": "New Jersey",
      "country": "United States"
    },
    "airportStops": [
      {
        "code": "DEN",
        "lat": 39.8396,
        "long": -104.672,
        "name": "Denver International Airport",
        "city": "Denver",
        "state": "Colorado",
        "country": "United States"
      },
      {
        "code": "ATL",
        "lat": 33.6558,
        "long": -84.4333,
        "name": "Hartsfield-Jackson Atlanta International Airport",
        "city": "Atlanta",
        "state": "Georgia",
        "country": "United States"
      }
    ],
    "ageInYears": 10,
    "flightPercentComplete": 13.309200593118288
  },
  {
    "callsign": "UAL463",
    "altitude": 32000,
    "grounded": false,
    "speed": 430.8,
    "lat": 42.578678,
    "long": -81.762873,
    "heading": 278.5,
    "aircraftType": "B739",
    "airportFrom": {
      "code": "LGA",
      "lat": 40.7731,
      "long": -73.8756,
      "name": "LaGuardia Airport",
      "city": "Flushing",
      "state": "New York",
      "country": "United States"
    },
    "airportTo": {
      "code": "LAX",
      "lat": 33.9456,
      "long": -118.391,
      "name": "Los Angeles International Airport",
      "city": "Los Angeles",
      "state": "California",
      "country": "United States"
    },
    "airportStops": [
      {
        "code": "ORD",
        "lat": 41.9796,
        "long": -87.8825,
        "name": "Chicago O'Hare International Airport",
        "city": "Chicago",
        "state": "Illinois",
        "country": "United States"
      }
    ],
    "ageInYears": 4,
    "flightPercentComplete": 16.486942617742805
  },
  {
    "callsign": "UAL237",
    "altitude": 36000,
    "grounded": false,
    "speed": 429,
    "lat": 36.571999,
    "long": -100.424698,
    "heading": 318,
    "aircraftType": "A319",
    "airportFrom": {
      "code": "DFW",
      "lat": 32.9222,
      "long": -97.0409,
      "name": "Fort Worth International Airport",
      "city": "Dallas",
      "state": "Texas",
      "country": "United States"
    },
    "airportTo": {
      "code": "PHX",
      "lat": 33.4376,
      "long": -112.03,
      "name": "Sky Harbor International Airport",
      "city": "Phoenix",
      "state": "Arizona",
      "country": "United States"
    },
    "airportStops": [
      {
        "code": "DEN",
        "lat": 39.8396,
        "long": -104.672,
        "name": "Denver International Airport",
        "city": "Denver",
        "state": "Colorado",
        "country": "United States"
      }
    ],
    "ageInYears": 16,
    "flightPercentComplete": 20.27475902308594
  },
  {
    "callsign": "UAL1156",
    "altitude": 30975,
    "grounded": false,
    "speed": 184.7,
    "lat": 41.281314,
    "long": -78.741386,
    "heading": 98.4,
    "aircraftType": "A319",
    "airportFrom": {
      "code": "BTV",
      "lat": 44.4688,
      "long": -73.1552,
      "name": "Burlington International Airport",
      "city": "South Burlington",
      "state": "Vermont",
      "country": "United States"
    },
    "airportTo": {
      "code": "ORD",
      "lat": 41.9796,
      "long": -87.8825,
      "name": "Chicago O'Hare International Airport",
      "city": "Chicago",
      "state": "Illinois",
      "country": "United States"
    },
    "ageInYears": 20,
    "flightPercentComplete": 37.59235524394383
  },
  {
    "callsign": "UAL2042",
    "altitude": 34000,
    "grounded": false,
    "speed": 430,
    "lat": 40.19269,
    "long": -83.753836,
    "heading": 293.3,
    "aircraftType": "B753",
    "airportFrom": {
      "code": "DCA",
      "lat": 38.849,
      "long": -77.0438,
      "name": "Washington National Airport",
      "city": "Arlington",
      "state": "Virginia",
      "country": "United States"
    },
    "airportTo": {
      "code": "SFO",
      "lat": 37.6148,
      "long": -122.392,
      "name": "San Francisco International Airport",
      "city": "San Francisco",
      "state": "California",
      "country": "United States"
    },
    "ageInYears": 17,
    "flightPercentComplete": 15.112967713688441
  },
  {
    "callsign": "UAL883",
    "altitude": 36000,
    "grounded": false,
    "speed": 393.9,
    "lat": 48.317001,
    "long": -69.048931,
    "heading": 224.7,
    "aircraftType": "B764",
    "airportFrom": {
      "code": "LHR",
      "lat": 51.4703,
      "long": -0.45342,
      "name": "London Heathrow Airport",
      "city": "Hounslow",
      "state": "England",
      "country": "United Kingdom"
    },
    "airportTo": {
      "code": "EWR",
      "lat": 40.6924,
      "long": -74.1843,
      "name": "Newark International Airport",
      "city": "Newark",
      "state": "New Jersey",
      "country": "United States"
    },
    "ageInYears": 18,
    "flightPercentComplete": 83.10304004108552
  },
  {
    "callsign": "UAL207",
    "altitude": 36000,
    "grounded": false,
    "speed": 414.3,
    "lat": 43.297631,
    "long": -78.40792,
    "heading": 267.7,
    "aircraftType": "B752",
    "airportFrom": {
      "code": "BOS",
      "lat": 42.3717,
      "long": -71.0281,
      "name": "Gen E L Logan International Airport",
      "city": "Boston",
      "state": "Massachusetts",
      "country": "United States"
    },
    "airportTo": {
      "code": "LAX",
      "lat": 33.9456,
      "long": -118.391,
      "name": "Los Angeles International Airport",
      "city": "Los Angeles",
      "state": "California",
      "country": "United States"
    },
    "airportStops": [
      {
        "code": "SFO",
        "lat": 37.6148,
        "long": -122.392,
        "name": "San Francisco International Airport",
        "city": "San Francisco",
        "state": "California",
        "country": "United States"
      }
    ],
    "ageInYears": 24,
    "flightPercentComplete": 14.360313049964024
  },
  {
    "callsign": "UAL703",
    "altitude": 33950,
    "grounded": false,
    "speed": 422,
    "lat": 41.391598,
    "long": -82.74379,
    "heading": 274.2,
    "aircraftType": "B752",
    "airportFrom": {
      "code": "EWR",
      "lat": 40.6924,
      "long": -74.1843,
      "name": "Newark International Airport",
      "city": "Newark",
      "state": "New Jersey",
      "country": "United States"
    },
    "airportTo": {
      "code": "LAX",
      "lat": 33.9456,
      "long": -118.391,
      "name": "Los Angeles International Airport",
      "city": "Los Angeles",
      "state": "California",
      "country": "United States"
    },
    "ageInYears": 21,
    "flightPercentComplete": 18.22813193889753
  },
  {
    "callsign": "UAL71",
    "altitude": 31975,
    "grounded": false,
    "speed": 438.9,
    "lat": 48.464722,
    "long": -60.944683,
    "heading": 238.7,
    "aircraftType": "B764",
    "airportFrom": {
      "code": "AMS",
      "lat": 52.3122,
      "long": 4.77511,
      "name": "Schiphol Airport",
      "city": "Schiphol Zuid",
      "state": "North Holland",
      "country": "Netherlands"
    },
    "airportTo": {
      "code": "EWR",
      "lat": 40.6924,
      "long": -74.1843,
      "name": "Newark International Airport",
      "city": "Newark",
      "state": "New Jersey",
      "country": "United States"
    },
    "ageInYears": 17,
    "flightPercentComplete": 76.9074221643796
  },
  {
    "callsign": "UAL1668",
    "altitude": 34000,
    "grounded": false,
    "speed": 412.7,
    "lat": 43.113191,
    "long": -80.613098,
    "heading": 267.5,
    "aircraftType": "A320",
    "airportFrom": {
      "code": "EWR",
      "lat": 40.6924,
      "long": -74.1843,
      "name": "Newark International Airport",
      "city": "Newark",
      "state": "New Jersey",
      "country": "United States"
    },
    "airportTo": {
      "code": "ORD",
      "lat": 41.9796,
      "long": -87.8825,
      "name": "Chicago O'Hare International Airport",
      "city": "Chicago",
      "state": "Illinois",
      "country": "United States"
    },
    "ageInYears": 17,
    "flightPercentComplete": 47.14850501617601
  },
  {
    "callsign": "UAL374",
    "altitude": 475,
    "grounded": false,
    "speed": 138,
    "lat": 38.930511,
    "long": -77.459942,
    "heading": 0.8,
    "aircraftType": "B739",
    "airportFrom": {
      "code": "IAD",
      "lat": 38.9556,
      "long": -77.4484,
      "name": "Dulles International Airport",
      "city": "Washington",
      "state": "Virginia",
      "country": "United States"
    },
    "airportTo": {
      "code": "MSY",
      "lat": 29.983,
      "long": -90.2569,
      "name": "New Orleans International Airport",
      "city": "Kenner",
      "state": "Louisiana",
      "country": "United States"
    },
    "airportStops": [
      {
        "code": "ORD",
        "lat": 41.9796,
        "long": -87.8825,
        "name": "Chicago O'Hare International Airport",
        "city": "Chicago",
        "state": "Illinois",
        "country": "United States"
      },
      {
        "code": "IAH",
        "lat": 29.9784,
        "long": -95.3424,
        "name": "George Bush Intercontinental Airport",
        "city": "Houston",
        "state": "Texas",
        "country": "United States"
      }
    ],
    "ageInYears": 9,
    "flightPercentComplete": 0.16013174833489074
  },
  {
    "callsign": "UAL1155",
    "altitude": 37000,
    "grounded": false,
    "speed": 500,
    "lat": 38.444401,
    "long": -92.117599,
    "heading": 43,
    "aircraftType": "A320",
    "airportFrom": {
      "code": "LAX",
      "lat": 33.9456,
      "long": -118.391,
      "name": "Los Angeles International Airport",
      "city": "Los Angeles",
      "state": "California",
      "country": "United States"
    },
    "airportTo": {
      "code": "IAH",
      "lat": 29.9784,
      "long": -95.3424,
      "name": "George Bush Intercontinental Airport",
      "city": "Houston",
      "state": "Texas",
      "country": "United States"
    },
    "ageInYears": 22,
    "flightPercentComplete": 55.42300090929449
  },
  {
    "callsign": "UAL367",
    "altitude": 35975,
    "grounded": false,
    "speed": 450,
    "lat": 33.904507,
    "long": -84.18251,
    "heading": 226,
    "aircraftType": "A320",
    "airportFrom": {
      "code": "BWI",
      "lat": 39.1841,
      "long": -76.6745,
      "name": "Baltimore-Washington International Thurgood Mars",
      "city": "Baltimore",
      "state": "Maryland",
      "country": "United States"
    },
    "airportTo": {
      "code": "ABQ",
      "lat": 35.0494,
      "long": -106.625,
      "name": "Albuquerque International Airport",
      "city": "Albuquerque",
      "state": "New Mexico",
      "country": "United States"
    },
    "airportStops": [
      {
        "code": "DEN",
        "lat": 39.8396,
        "long": -104.672,
        "name": "Denver International Airport",
        "city": "Denver",
        "state": "Colorado",
        "country": "United States"
      }
    ],
    "ageInYears": 18,
    "flightPercentComplete": 23.32817376539461
  },
  {
    "callsign": "UAL699",
    "altitude": 32000,
    "grounded": false,
    "speed": 481,
    "lat": 33.384018,
    "long": -79.562881,
    "heading": 219.3,
    "aircraftType": "B739",
    "airportFrom": {
      "code": "EWR",
      "lat": 40.6924,
      "long": -74.1843,
      "name": "Newark International Airport",
      "city": "Newark",
      "state": "New Jersey",
      "country": "United States"
    },
    "airportTo": {
      "code": "FLL",
      "lat": 26.0722,
      "long": -80.1354,
      "name": "Fort Lauderdale Hollywood International Airport",
      "city": "Dania Beach",
      "state": "Florida",
      "country": "United States"
    },
    "ageInYears": 10,
    "flightPercentComplete": 52.50810569916556
  },
  {
    "callsign": "UAL475",
    "altitude": 37650,
    "grounded": false,
    "speed": 444.8,
    "lat": 35.563023,
    "long": -82.127186,
    "heading": 224.2,
    "aircraftType": "A319",
    "airportFrom": {
      "code": "EWR",
      "lat": 40.6924,
      "long": -74.1843,
      "name": "Newark International Airport",
      "city": "Newark",
      "state": "New Jersey",
      "country": "United States"
    },
    "airportTo": {
      "code": "ATL",
      "lat": 33.6558,
      "long": -84.4333,
      "name": "Hartsfield-Jackson Atlanta International Airport",
      "city": "Atlanta",
      "state": "Georgia",
      "country": "United States"
    },
    "ageInYears": 20,
    "flightPercentComplete": 75.00925170723922
  },
  {
    "callsign": "UAL2069",
    "altitude": 750,
    "grounded": false,
    "speed": 151,
    "lat": 41.983927,
    "long": -87.854217,
    "heading": 270,
    "aircraftType": "B739",
    "airportFrom": {
      "code": "TLV",
      "lat": 32.0117,
      "long": 34.8861,
      "name": "Ben Gurion Airport",
      "city": "Petaẖ Tiqwa",
      "state": "HaMerkaz",
      "country": "Israel"
    },
    "airportTo": {
      "code": "EWR",
      "lat": 40.6924,
      "long": -74.1843,
      "name": "Newark International Airport",
      "city": "Newark",
      "state": "New Jersey",
      "country": "United States"
    },
    "ageInYears": 6,
    "flightPercentComplete": 87.43040879386655
  },
  {
    "callsign": "UAL520",
    "altitude": 875,
    "grounded": false,
    "speed": 132,
    "lat": 42.002792,
    "long": -87.882323,
    "heading": 269.1,
    "aircraftType": "B737",
    "airportFrom": {
      "code": "MSP",
      "lat": 44.8793,
      "long": -93.1987,
      "name": "Minneapolis St Paul International Airport",
      "city": "St. Paul",
      "state": "Minnesota",
      "country": "United States"
    },
    "airportTo": {
      "code": "IAH",
      "lat": 29.9784,
      "long": -95.3424,
      "name": "George Bush Intercontinental Airport",
      "city": "Houston",
      "state": "Texas",
      "country": "United States"
    },
    "airportStops": [
      {
        "code": "ORD",
        "lat": 41.9796,
        "long": -87.8825,
        "name": "Chicago O'Hare International Airport",
        "city": "Chicago",
        "state": "Illinois",
        "country": "United States"
      },
      {
        "code": "MSY",
        "lat": 29.983,
        "long": -90.2569,
        "name": "New Orleans International Airport",
        "city": "Kenner",
        "state": "Louisiana",
        "country": "United States"
      }
    ],
    "ageInYears": 19,
    "flightPercentComplete": 10.372457578235839
  },
  {
    "callsign": "UAL441",
    "altitude": 13950,
    "grounded": false,
    "speed": 429,
    "lat": 32.410099,
    "long": -90.119202,
    "heading": 239,
    "aircraftType": "A320",
    "airportFrom": {
      "code": "PHX",
      "lat": 33.4376,
      "long": -112.03,
      "name": "Sky Harbor International Airport",
      "city": "Phoenix",
      "state": "Arizona",
      "country": "United States"
    },
    "airportTo": {
      "code": "EWR",
      "lat": 40.6924,
      "long": -74.1843,
      "name": "Newark International Airport",
      "city": "Newark",
      "state": "New Jersey",
      "country": "United States"
    },
    "airportStops": [
      {
        "code": "SFO",
        "lat": 37.6148,
        "long": -122.392,
        "name": "San Francisco International Airport",
        "city": "San Francisco",
        "state": "California",
        "country": "United States"
      }
    ],
    "ageInYears": 21,
    "flightPercentComplete": 50.62761558042668
  },
  {
    "callsign": "UAL387",
    "altitude": 425,
    "grounded": false,
    "lat": 39.102018,
    "long": -76.61377,
    "heading": 159.9,
    "aircraftType": "A319",
    "airportFrom": {
      "code": "ATL",
      "lat": 33.6558,
      "long": -84.4333,
      "name": "Hartsfield-Jackson Atlanta International Airport",
      "city": "Atlanta",
      "state": "Georgia",
      "country": "United States"
    },
    "airportTo": {
      "code": "EWR",
      "lat": 40.6924,
      "long": -74.1843,
      "name": "Newark International Airport",
      "city": "Newark",
      "state": "New Jersey",
      "country": "United States"
    },
    "ageInYears": 16,
    "flightPercentComplete": 77.24363285678749
  },
  {
    "callsign": "UAL47",
    "altitude": 34000,
    "grounded": false,
    "speed": 507.3,
    "lat": 55.383682,
    "long": -3.051937,
    "heading": 291.5,
    "aircraftType": "B772",
    "airportFrom": {
      "code": "FRA",
      "lat": 50.0483,
      "long": 8.57041,
      "name": "Frankfurt International Airport",
      "city": "Frankfurt",
      "state": "Hesse",
      "country": "Germany"
    },
    "airportTo": {
      "code": "IAH",
      "lat": 29.9784,
      "long": -95.3424,
      "name": "George Bush Intercontinental Airport",
      "city": "Houston",
      "state": "Texas",
      "country": "United States"
    },
    "ageInYears": 11,
    "flightPercentComplete": 11.401035535603777
  },
  {
    "callsign": "UAL2182",
    "altitude": 775,
    "grounded": false,
    "speed": 388.3,
    "lat": 42.091416,
    "long": -87.579814,
    "heading": 90,
    "aircraftType": "A319",
    "airportFrom": {
      "code": "FRA",
      "lat": 50.0483,
      "long": 8.57041,
      "name": "Frankfurt International Airport",
      "city": "Frankfurt",
      "state": "Hesse",
      "country": "Germany"
    },
    "airportTo": {
      "code": "ORD",
      "lat": 41.9796,
      "long": -87.8825,
      "name": "Chicago O'Hare International Airport",
      "city": "Chicago",
      "state": "Illinois",
      "country": "United States"
    },
    "ageInYears": 17,
    "flightPercentComplete": 99.59936087437599
  },
  {
    "callsign": "UAL1746",
    "altitude": -25,
    "grounded": false,
    "speed": 2.5,
    "lat": 37.620202,
    "long": -122.383262,
    "heading": 129.4,
    "aircraftType": "B738",
    "airportFrom": {
      "code": "DEN",
      "lat": 39.8396,
      "long": -104.672,
      "name": "Denver International Airport",
      "city": "Denver",
      "state": "Colorado",
      "country": "United States"
    },
    "airportTo": {
      "code": "SAN",
      "lat": 32.7299,
      "long": -117.195,
      "name": "San Diego International Airport",
      "city": "San Diego",
      "state": "California",
      "country": "United States"
    },
    "flightPercentComplete": 47.51026366203022
  },
  {
    "callsign": "UAL1585",
    "altitude": 35975,
    "grounded": false,
    "speed": 231,
    "lat": 39.1992,
    "long": -94.826698,
    "heading": 257,
    "aircraftType": "A320",
    "airportFrom": {
      "code": "SMF",
      "lat": 38.683,
      "long": -121.591,
      "name": "Sacramento International Airport",
      "city": "Sacramento",
      "state": "California",
      "country": "United States"
    },
    "airportTo": {
      "code": "IAH",
      "lat": 29.9784,
      "long": -95.3424,
      "name": "George Bush Intercontinental Airport",
      "city": "Houston",
      "state": "Texas",
      "country": "United States"
    },
    "ageInYears": 17,
    "flightPercentComplete": 60.30746816938891
  },
  {
    "callsign": "UAL561",
    "altitude": 32000,
    "grounded": false,
    "speed": 453,
    "lat": 41.546476,
    "long": -88.289454,
    "heading": 270,
    "aircraftType": "A320",
    "airportFrom": {
      "code": "LGA",
      "lat": 40.7731,
      "long": -73.8756,
      "name": "LaGuardia Airport",
      "city": "Flushing",
      "state": "New York",
      "country": "United States"
    },
    "airportTo": {
      "code": "JAC",
      "lat": 43.6034,
      "long": -110.736,
      "name": "Jackson Hole Airport",
      "city": "Jackson",
      "state": "Wyoming",
      "country": "United States"
    },
    "airportStops": [
      {
        "code": "DEN",
        "lat": 39.8396,
        "long": -104.672,
        "name": "Denver International Airport",
        "city": "Denver",
        "state": "Colorado",
        "country": "United States"
      }
    ],
    "ageInYears": 23,
    "flightPercentComplete": 39.023124487238334
  },
  {
    "callsign": "UAL169",
    "altitude": 34000,
    "grounded": false,
    "speed": 547.4,
    "lat": 53.400072,
    "long": -2.521362,
    "heading": 307.2,
    "aircraftType": "B763",
    "airportFrom": {
      "code": "VCE",
      "lat": 45.505,
      "long": 12.3433,
      "name": "Marco Polo International Airport",
      "city": "Venice",
      "state": "Veneto",
      "country": "Italy"
    },
    "airportTo": {
      "code": "EWR",
      "lat": 40.6924,
      "long": -74.1843,
      "name": "Newark International Airport",
      "city": "Newark",
      "state": "New Jersey",
      "country": "United States"
    },
    "ageInYears": 17,
    "flightPercentComplete": 19.796748787016305
  },
  {
    "callsign": "UAL949",
    "altitude": 32000,
    "grounded": false,
    "speed": 511.7,
    "lat": 57.822116,
    "long": -5.677185,
    "heading": 327,
    "aircraftType": "B773",
    "airportFrom": {
      "code": "LHR",
      "lat": 51.4703,
      "long": -0.45342,
      "name": "London Heathrow Airport",
      "city": "Hounslow",
      "state": "England",
      "country": "United Kingdom"
    },
    "airportTo": {
      "code": "SFO",
      "lat": 37.6148,
      "long": -122.392,
      "name": "San Francisco International Airport",
      "city": "San Francisco",
      "state": "California",
      "country": "United States"
    },
    "ageInYears": 1,
    "flightPercentComplete": 8.495977786674535
  },
  {
    "callsign": "UAL1080",
    "altitude": 36000,
    "grounded": false,
    "speed": 458,
    "lat": 29.389498,
    "long": -79.168827,
    "heading": 199.4,
    "aircraftType": "B738",
    "airportFrom": {
      "code": "EWR",
      "lat": 40.6924,
      "long": -74.1843,
      "name": "Newark International Airport",
      "city": "Newark",
      "state": "New Jersey",
      "country": "United States"
    },
    "airportTo": {
      "code": "SJO",
      "lat": 9.9919,
      "long": -84.2114,
      "name": "Juan Santamaria International Airport",
      "city": "Heredia",
      "state": "Alajuela",
      "country": "Costa Rica"
    },
    "ageInYears": 8,
    "flightPercentComplete": 37.53358215838468
  },
  {
    "callsign": "UAL2007",
    "altitude": 26975,
    "grounded": false,
    "speed": 449.7,
    "lat": 39.190188,
    "long": -76.18457,
    "heading": 41.4,
    "aircraftType": "A319",
    "airportFrom": {
      "code": "LAX",
      "lat": 33.9456,
      "long": -118.391,
      "name": "Los Angeles International Airport",
      "city": "Los Angeles",
      "state": "California",
      "country": "United States"
    },
    "airportTo": {
      "code": "EWR",
      "lat": 40.6924,
      "long": -74.1843,
      "name": "Newark International Airport",
      "city": "Newark",
      "state": "New Jersey",
      "country": "United States"
    },
    "ageInYears": 19,
    "flightPercentComplete": 93.93883940967223
  },
  {
    "callsign": "UAL449",
    "altitude": 30000,
    "grounded": false,
    "speed": 432,
    "lat": 42.998154,
    "long": -83.447296,
    "heading": 262.2,
    "aircraftType": "B739",
    "airportFrom": {
      "code": "BOS",
      "lat": 42.3717,
      "long": -71.0281,
      "name": "Gen E L Logan International Airport",
      "city": "Boston",
      "state": "Massachusetts",
      "country": "United States"
    },
    "airportTo": {
      "code": "ORD",
      "lat": 41.9796,
      "long": -87.8825,
      "name": "Chicago O'Hare International Airport",
      "city": "Chicago",
      "state": "Illinois",
      "country": "United States"
    },
    "ageInYears": 5,
    "flightPercentComplete": 72.54805705224683
  },
  {
    "callsign": "UAL906",
    "altitude": 33975,
    "grounded": false,
    "speed": 539.7,
    "lat": 59.316722,
    "long": -1.104315,
    "heading": 331.4,
    "aircraftType": "B772",
    "airportFrom": {
      "code": "FRA",
      "lat": 50.0483,
      "long": 8.57041,
      "name": "Frankfurt International Airport",
      "city": "Frankfurt",
      "state": "Hesse",
      "country": "Germany"
    },
    "airportTo": {
      "code": "ORD",
      "lat": 41.9796,
      "long": -87.8825,
      "name": "Chicago O'Hare International Airport",
      "city": "Chicago",
      "state": "Illinois",
      "country": "United States"
    },
    "ageInYears": 21,
    "flightPercentComplete": 14.83000658764123
  },
  {
    "callsign": "UAL795",
    "altitude": 14575,
    "grounded": false,
    "speed": 421.7,
    "lat": 42.697992,
    "long": -86.750921,
    "heading": 228.1,
    "aircraftType": "A320",
    "airportFrom": {
      "code": "SLC",
      "lat": 40.7862,
      "long": -111.982,
      "name": "Salt Lake City International Airport",
      "city": "Salt Lake City",
      "state": "Utah",
      "country": "United States"
    },
    "airportTo": {
      "code": "IAH",
      "lat": 29.9784,
      "long": -95.3424,
      "name": "George Bush Intercontinental Airport",
      "city": "Houston",
      "state": "Texas",
      "country": "United States"
    },
    "ageInYears": 17,
    "flightPercentComplete": 16.37308333540434
  },
  {
    "callsign": "UAL371",
    "altitude": 1075,
    "grounded": false,
    "speed": 137,
    "lat": 30.00734,
    "long": -95.26377,
    "heading": 269.5,
    "aircraftType": "B739",
    "airportFrom": {
      "code": "EWR",
      "lat": 40.6924,
      "long": -74.1843,
      "name": "Newark International Airport",
      "city": "Newark",
      "state": "New Jersey",
      "country": "United States"
    },
    "airportTo": {
      "code": "TPA",
      "lat": 27.9744,
      "long": -82.5356,
      "name": "Tampa International Airport",
      "city": "Tampa",
      "state": "Florida",
      "country": "United States"
    },
    "ageInYears": 17,
    "flightPercentComplete": 21.724665754219473
  },
  {
    "callsign": "UAL715",
    "altitude": 37000,
    "grounded": false,
    "speed": 469.7,
    "lat": 34.913544,
    "long": -82.346397,
    "heading": 70.6,
    "aircraftType": "A319",
    "airportFrom": {
      "code": "MCO",
      "lat": 28.4418,
      "long": -81.3115,
      "name": "Orlando International Airport",
      "city": "Orlando",
      "state": "Florida",
      "country": "United States"
    },
    "airportTo": {
      "code": "EWR",
      "lat": 40.6924,
      "long": -74.1843,
      "name": "Newark International Airport",
      "city": "Newark",
      "state": "New Jersey",
      "country": "United States"
    },
    "ageInYears": 17,
    "flightPercentComplete": 36.24801982172835
  },
  {
    "callsign": "UAL636",
    "altitude": 225,
    "grounded": false,
    "speed": 165.9,
    "lat": 40.708603,
    "long": -74.154541,
    "heading": 206.1,
    "aircraftType": "B738",
    "airportFrom": {
      "code": "ORD",
      "lat": 41.9796,
      "long": -87.8825,
      "name": "Chicago O'Hare International Airport",
      "city": "Chicago",
      "state": "Illinois",
      "country": "United States"
    },
    "airportTo": {
      "code": "EWR",
      "lat": 40.6924,
      "long": -74.1843,
      "name": "Newark International Airport",
      "city": "Newark",
      "state": "New Jersey",
      "country": "United States"
    },
    "ageInYears": 17,
    "flightPercentComplete": 99.73173458404074
  },
  {
    "callsign": "UAL1289",
    "altitude": 15000,
    "grounded": false,
    "speed": 398,
    "lat": 39.921523,
    "long": -75.315491,
    "heading": 41.9,
    "aircraftType": "A320",
    "airportFrom": {
      "code": "FLL",
      "lat": 26.0722,
      "long": -80.1354,
      "name": "Fort Lauderdale Hollywood International Airport",
      "city": "Dania Beach",
      "state": "Florida",
      "country": "United States"
    },
    "airportTo": {
      "code": "EWR",
      "lat": 40.6924,
      "long": -74.1843,
      "name": "Newark International Airport",
      "city": "Newark",
      "state": "New Jersey",
      "country": "United States"
    },
    "ageInYears": 20,
    "flightPercentComplete": 92.50314516525624
  },
  {
    "callsign": "UAL759",
    "altitude": 36000,
    "grounded": false,
    "speed": 395.4,
    "lat": 36.608447,
    "long": -95.297514,
    "heading": 289.8,
    "aircraftType": "B738",
    "airportFrom": {
      "code": "MCO",
      "lat": 28.4418,
      "long": -81.3115,
      "name": "Orlando International Airport",
      "city": "Orlando",
      "state": "Florida",
      "country": "United States"
    },
    "airportTo": {
      "code": "SFO",
      "lat": 37.6148,
      "long": -122.392,
      "name": "San Francisco International Airport",
      "city": "San Francisco",
      "state": "California",
      "country": "United States"
    },
    "ageInYears": 19,
    "flightPercentComplete": 39.00860874309896
  },
  {
    "callsign": "UAL1848",
    "altitude": 36000,
    "grounded": false,
    "speed": 433.7,
    "lat": 41.112842,
    "long": -90.013296,
    "heading": 261.5,
    "aircraftType": "B752",
    "airportFrom": {
      "code": "SFO",
      "lat": 37.6148,
      "long": -122.392,
      "name": "San Francisco International Airport",
      "city": "San Francisco",
      "state": "California",
      "country": "United States"
    },
    "airportTo": {
      "code": "MSY",
      "lat": 29.983,
      "long": -90.2569,
      "name": "New Orleans International Airport",
      "city": "Kenner",
      "state": "Louisiana",
      "country": "United States"
    },
    "ageInYears": 26,
    "flightPercentComplete": 59.700340656735776
  },
  {
    "callsign": "UAL195",
    "altitude": 36000,
    "grounded": false,
    "speed": 512.9,
    "lat": 59.353777,
    "long": 3.693774,
    "heading": 327.2,
    "aircraftType": "B789",
    "airportFrom": {
      "code": "MUC",
      "lat": 48.354,
      "long": 11.7816,
      "name": "Franz-Josef-Strauss Airport",
      "city": "Oberding",
      "state": "Bavaria",
      "country": "Germany"
    },
    "airportTo": {
      "code": "SFO",
      "lat": 37.6148,
      "long": -122.392,
      "name": "San Francisco International Airport",
      "city": "San Francisco",
      "state": "California",
      "country": "United States"
    },
    "ageInYears": 3,
    "flightPercentComplete": 13.634598287238076
  },
  {
    "callsign": "UAL332",
    "altitude": 525,
    "grounded": false,
    "speed": 434,
    "lat": 31.439501,
    "long": -90.120598,
    "heading": 265,
    "aircraftType": "A319",
    "airportFrom": {
      "code": "DCA",
      "lat": 38.849,
      "long": -77.0438,
      "name": "Washington National Airport",
      "city": "Arlington",
      "state": "Virginia",
      "country": "United States"
    },
    "airportTo": {
      "code": "GDL",
      "lat": 20.5347,
      "long": -103.322,
      "name": "Don Miguel Hidalgo International Airport",
      "city": "Tlajomulco de Zúñiga",
      "state": "Jalisco",
      "country": "Mexico"
    },
    "airportStops": [
      {
        "code": "IAH",
        "lat": 29.9784,
        "long": -95.3424,
        "name": "George Bush Intercontinental Airport",
        "city": "Houston",
        "state": "Texas",
        "country": "United States"
      }
    ],
    "ageInYears": 18,
    "flightPercentComplete": 44.662946779639235
  },
  {
    "callsign": "UAL1784",
    "altitude": 275,
    "grounded": false,
    "speed": 139,
    "lat": 28.46109,
    "long": -81.296082,
    "heading": 180,
    "aircraftType": "B752",
    "airportFrom": {
      "code": "EWR",
      "lat": 40.6924,
      "long": -74.1843,
      "name": "Newark International Airport",
      "city": "Newark",
      "state": "New Jersey",
      "country": "United States"
    },
    "airportTo": {
      "code": "MCO",
      "lat": 28.4418,
      "long": -81.3115,
      "name": "Orlando International Airport",
      "city": "Orlando",
      "state": "Florida",
      "country": "United States"
    },
    "ageInYears": 24,
    "flightPercentComplete": 99.82627877616072
  },
  {
    "callsign": "UAL1881",
    "altitude": 36000,
    "grounded": false,
    "speed": 464,
    "lat": 40.504265,
    "long": -96.922264,
    "heading": 270.1,
    "aircraftType": "B738",
    "airportFrom": {
      "code": "IAD",
      "lat": 38.9556,
      "long": -77.4484,
      "name": "Dulles International Airport",
      "city": "Washington",
      "state": "Virginia",
      "country": "United States"
    },
    "airportTo": {
      "code": "SFO",
      "lat": 37.6148,
      "long": -122.392,
      "name": "San Francisco International Airport",
      "city": "San Francisco",
      "state": "California",
      "country": "United States"
    },
    "ageInYears": 16,
    "flightPercentComplete": 43.00172884109577
  },
  {
    "callsign": "UAL123",
    "altitude": 37975,
    "grounded": false,
    "speed": 418,
    "lat": 42.8969,
    "long": -68.36377,
    "heading": 255.4,
    "aircraftType": "B752",
    "airportFrom": {
      "code": "LHR",
      "lat": 51.4703,
      "long": -0.45342,
      "name": "London Heathrow Airport",
      "city": "Hounslow",
      "state": "England",
      "country": "United Kingdom"
    },
    "airportTo": {
      "code": "IAD",
      "lat": 38.9556,
      "long": -77.4484,
      "name": "Dulles International Airport",
      "city": "Washington",
      "state": "Virginia",
      "country": "United States"
    },
    "ageInYears": 19,
    "flightPercentComplete": 85.09785145431402
  },
  {
    "callsign": "UAL695",
    "altitude": 33425,
    "grounded": false,
    "speed": 462,
    "lat": 31.023994,
    "long": -93.641586,
    "heading": 237.1,
    "aircraftType": "B737",
    "airportFrom": {
      "code": "SEA",
      "lat": 47.4405,
      "long": -122.296,
      "name": "Tacoma International Airport",
      "city": "Seattle",
      "state": "Washington",
      "country": "United States"
    },
    "airportTo": {
      "code": "DEN",
      "lat": 39.8396,
      "long": -104.672,
      "name": "Denver International Airport",
      "city": "Denver",
      "state": "Colorado",
      "country": "United States"
    },
    "ageInYears": 19,
    "flightPercentComplete": 15.048286786375243
  },
  {
    "callsign": "UAL107",
    "altitude": 32000,
    "grounded": false,
    "speed": 488.2,
    "lat": 59.771956,
    "long": -0.817629,
    "heading": 302.5,
    "aircraftType": "B772",
    "airportFrom": {
      "code": "MUC",
      "lat": 48.354,
      "long": 11.7816,
      "name": "Franz-Josef-Strauss Airport",
      "city": "Oberding",
      "state": "Bavaria",
      "country": "Germany"
    },
    "airportTo": {
      "code": "IAD",
      "lat": 38.9556,
      "long": -77.4484,
      "name": "Dulles International Airport",
      "city": "Washington",
      "state": "Virginia",
      "country": "United States"
    },
    "ageInYears": 16,
    "flightPercentComplete": 17.64037982117773
  },
  {
    "callsign": "UAL2196",
    "altitude": 11950,
    "grounded": false,
    "speed": 343.9,
    "lat": 41.833649,
    "long": -86.822392,
    "heading": 350.3,
    "aircraftType": "B739",
    "airportFrom": {
      "code": "AMS",
      "lat": 52.3122,
      "long": 4.77511,
      "name": "Schiphol Airport",
      "city": "Schiphol Zuid",
      "state": "North Holland",
      "country": "Netherlands"
    },
    "airportTo": {
      "code": "IAD",
      "lat": 38.9556,
      "long": -77.4484,
      "name": "Dulles International Airport",
      "city": "Washington",
      "state": "Virginia",
      "country": "United States"
    },
    "ageInYears": 6,
    "flightPercentComplete": 86.21842196006111
  },
  {
    "callsign": "UAL988",
    "altitude": 34000,
    "grounded": false,
    "speed": 469,
    "lat": 54.547211,
    "long": -10.501152,
    "heading": 260.1,
    "aircraftType": "B772",
    "airportFrom": {
      "code": "FRA",
      "lat": 50.0483,
      "long": 8.57041,
      "name": "Frankfurt International Airport",
      "city": "Frankfurt",
      "state": "Hesse",
      "country": "Germany"
    },
    "airportTo": {
      "code": "IAD",
      "lat": 38.9556,
      "long": -77.4484,
      "name": "Dulles International Airport",
      "city": "Washington",
      "state": "Virginia",
      "country": "United States"
    },
    "ageInYears": 16,
    "flightPercentComplete": 21.09944480677828
  },
  {
    "callsign": "UAL588",
    "altitude": 700,
    "grounded": false,
    "speed": 138,
    "lat": 41.983881,
    "long": -87.883727,
    "heading": 270.4,
    "aircraftType": "B739",
    "airportFrom": {
      "code": "ORD",
      "lat": 41.9796,
      "long": -87.8825,
      "name": "Chicago O'Hare International Airport",
      "city": "Chicago",
      "state": "Illinois",
      "country": "United States"
    },
    "airportTo": {
      "code": "SLC",
      "lat": 40.7862,
      "long": -111.982,
      "name": "Salt Lake City International Airport",
      "city": "Salt Lake City",
      "state": "Utah",
      "country": "United States"
    },
    "ageInYears": 3,
    "flightPercentComplete": 0.006815219136613315
  },
  {
    "callsign": "UAL1094",
    "altitude": 34000,
    "grounded": false,
    "speed": 470,
    "lat": 41.077089,
    "long": -98.196175,
    "heading": 262.5,
    "aircraftType": "B739",
    "airportFrom": {
      "code": "IAH",
      "lat": 29.9784,
      "long": -95.3424,
      "name": "George Bush Intercontinental Airport",
      "city": "Houston",
      "state": "Texas",
      "country": "United States"
    },
    "airportTo": {
      "code": "LAX",
      "lat": 33.9456,
      "long": -118.391,
      "name": "Los Angeles International Airport",
      "city": "Los Angeles",
      "state": "California",
      "country": "United States"
    },
    "ageInYears": 4,
    "flightPercentComplete": 12.19358576377404
  },
  {
    "callsign": "UAL2092",
    "altitude": 600,
    "grounded": false,
    "speed": 146,
    "lat": 29.9935,
    "long": -95.289217,
    "heading": 270,
    "aircraftType": "B739",
    "airportFrom": {
      "code": "SMF",
      "lat": 38.683,
      "long": -121.591,
      "name": "Sacramento International Airport",
      "city": "Sacramento",
      "state": "California",
      "country": "United States"
    },
    "airportTo": {
      "code": "DEN",
      "lat": 39.8396,
      "long": -104.672,
      "name": "Denver International Airport",
      "city": "Denver",
      "state": "Colorado",
      "country": "United States"
    },
    "ageInYears": 8,
    "flightPercentComplete": 4.962237362098831
  },
  {
    "callsign": "UAL1078",
    "altitude": 14050,
    "grounded": false,
    "speed": 369,
    "lat": 40.568646,
    "long": -74.817456,
    "heading": 83.8,
    "aircraftType": "A320",
    "airportFrom": {
      "code": "BOS",
      "lat": 42.3717,
      "long": -71.0281,
      "name": "Gen E L Logan International Airport",
      "city": "Boston",
      "state": "Massachusetts",
      "country": "United States"
    },
    "airportTo": {
      "code": "IAH",
      "lat": 29.9784,
      "long": -95.3424,
      "name": "George Bush Intercontinental Airport",
      "city": "Houston",
      "state": "Texas",
      "country": "United States"
    },
    "airportStops": [
      {
        "code": "EWR",
        "lat": 40.6924,
        "long": -74.1843,
        "name": "Newark International Airport",
        "city": "Newark",
        "state": "New Jersey",
        "country": "United States"
      }
    ],
    "ageInYears": 25,
    "flightPercentComplete": 14.456252743403597
  },
  {
    "callsign": "UAL82",
    "altitude": 35000,
    "grounded": false,
    "speed": 492,
    "lat": 55.436779,
    "long": 26.61648,
    "heading": 124.5,
    "aircraftType": "B772",
    "airportFrom": {
      "code": "EWR",
      "lat": 40.6924,
      "long": -74.1843,
      "name": "Newark International Airport",
      "city": "Newark",
      "state": "New Jersey",
      "country": "United States"
    },
    "airportTo": {
      "code": "DEL",
      "lat": 28.5603,
      "long": 77.1027,
      "name": "Indira Gandhi International Airport",
      "city": "New Delhi",
      "state": "Madhya Pradesh",
      "country": "India"
    },
    "ageInYears": 18,
    "flightPercentComplete": 57.7477904872828
  },
  {
    "callsign": "UAL141",
    "altitude": 34000,
    "grounded": false,
    "speed": 451,
    "lat": 41.613968,
    "long": -25.15557,
    "heading": 262.4,
    "aircraftType": "B763",
    "airportFrom": {
      "code": "CDG",
      "lat": 49.0175,
      "long": 2.5564,
      "name": "Charles de Gaulle International Airport",
      "city": "Le Mesnil-Amelot",
      "state": "Ile-de-France",
      "country": "France"
    },
    "airportTo": {
      "code": "IAD",
      "lat": 38.9556,
      "long": -77.4484,
      "name": "Dulles International Airport",
      "city": "Washington",
      "state": "Virginia",
      "country": "United States"
    },
    "ageInYears": 26,
    "flightPercentComplete": 29.36160475273555
  },
  {
    "callsign": "UAL953",
    "altitude": 35000,
    "grounded": false,
    "speed": 464,
    "lat": 56.435577,
    "long": -9.529391,
    "heading": 284.1,
    "aircraftType": "B772",
    "airportFrom": {
      "code": "MUC",
      "lat": 48.354,
      "long": 11.7816,
      "name": "Franz-Josef-Strauss Airport",
      "city": "Oberding",
      "state": "Bavaria",
      "country": "Germany"
    },
    "airportTo": {
      "code": "ORD",
      "lat": 41.9796,
      "long": -87.8825,
      "name": "Chicago O'Hare International Airport",
      "city": "Chicago",
      "state": "Illinois",
      "country": "United States"
    },
    "ageInYears": 17,
    "flightPercentComplete": 23.219722374385366
  },
  {
    "callsign": "UAL2406",
    "altitude": 26100,
    "grounded": false,
    "speed": 352.3,
    "lat": 40.326807,
    "long": -75.396923,
    "heading": 230.3,
    "aircraftType": "A320",
    "airportFrom": {
      "code": "BOS",
      "lat": 42.3717,
      "long": -71.0281,
      "name": "Gen E L Logan International Airport",
      "city": "Boston",
      "state": "Massachusetts",
      "country": "United States"
    },
    "airportTo": {
      "code": "LAS",
      "lat": 36.0806,
      "long": -115.143,
      "name": "Mccarran International Airport",
      "city": "Las Vegas",
      "state": "Nevada",
      "country": "United States"
    },
    "airportStops": [
      {
        "code": "DEN",
        "lat": 39.8396,
        "long": -104.672,
        "name": "Denver International Airport",
        "city": "Denver",
        "state": "Colorado",
        "country": "United States"
      }
    ],
    "ageInYears": 18,
    "flightPercentComplete": 9.017316858105273
  },
  {
    "callsign": "UAL1727",
    "altitude": 200,
    "grounded": false,
    "speed": 158.3,
    "lat": 40.717986,
    "long": -74.148664,
    "heading": 206.2,
    "aircraftType": "B739",
    "airportFrom": {
      "code": "MCO",
      "lat": 28.4418,
      "long": -81.3115,
      "name": "Orlando International Airport",
      "city": "Orlando",
      "state": "Florida",
      "country": "United States"
    },
    "airportTo": {
      "code": "EWR",
      "lat": 40.6924,
      "long": -74.1843,
      "name": "Newark International Airport",
      "city": "Newark",
      "state": "New Jersey",
      "country": "United States"
    },
    "ageInYears": 6,
    "flightPercentComplete": 99.72583905889914
  },
  {
    "callsign": "UAL985",
    "altitude": 275,
    "grounded": false,
    "speed": 164.6,
    "lat": 40.706022,
    "long": -74.156279,
    "heading": 205.9,
    "aircraftType": "B738",
    "airportFrom": {
      "code": "FLL",
      "lat": 26.0722,
      "long": -80.1354,
      "name": "Fort Lauderdale Hollywood International Airport",
      "city": "Dania Beach",
      "state": "Florida",
      "country": "United States"
    },
    "airportTo": {
      "code": "EWR",
      "lat": 40.6924,
      "long": -74.1843,
      "name": "Newark International Airport",
      "city": "Newark",
      "state": "New Jersey",
      "country": "United States"
    },
    "ageInYears": 10,
    "flightPercentComplete": 99.83646211162109
  },
  {
    "callsign": "UAL2198",
    "altitude": 26975,
    "grounded": false,
    "speed": 460.2,
    "lat": 39.496501,
    "long": -79.527039,
    "heading": 102.7,
    "aircraftType": "B738",
    "airportFrom": {
      "code": "FRA",
      "lat": 50.0483,
      "long": 8.57041,
      "name": "Frankfurt International Airport",
      "city": "Frankfurt",
      "state": "Hesse",
      "country": "Germany"
    },
    "airportTo": {
      "code": "IAH",
      "lat": 29.9784,
      "long": -95.3424,
      "name": "George Bush Intercontinental Airport",
      "city": "Houston",
      "state": "Texas",
      "country": "United States"
    },
    "ageInYears": 16,
    "flightPercentComplete": 78.73486062746392
  },
  {
    "callsign": "UAL1290",
    "altitude": 1050,
    "grounded": false,
    "speed": 164,
    "lat": 26.076841,
    "long": -80.269811,
    "heading": 90,
    "aircraftType": "B739",
    "airportFrom": {
      "code": "EWR",
      "lat": 40.6924,
      "long": -74.1843,
      "name": "Newark International Airport",
      "city": "Newark",
      "state": "New Jersey",
      "country": "United States"
    },
    "airportTo": {
      "code": "FLL",
      "lat": 26.0722,
      "long": -80.1354,
      "name": "Fort Lauderdale Hollywood International Airport",
      "city": "Dania Beach",
      "state": "Florida",
      "country": "United States"
    },
    "ageInYears": 4,
    "flightPercentComplete": 99.21704853789257
  },
  {
    "callsign": "UAL758",
    "altitude": 36000,
    "grounded": false,
    "speed": 464.2,
    "lat": 39.115285,
    "long": -99.863342,
    "heading": 255.3,
    "aircraftType": "B752",
    "airportFrom": {
      "code": "EWR",
      "lat": 40.6924,
      "long": -74.1843,
      "name": "Newark International Airport",
      "city": "Newark",
      "state": "New Jersey",
      "country": "United States"
    },
    "airportTo": {
      "code": "LAX",
      "lat": 33.9456,
      "long": -118.391,
      "name": "Los Angeles International Airport",
      "city": "Los Angeles",
      "state": "California",
      "country": "United States"
    },
    "ageInYears": 24,
    "flightPercentComplete": 55.59899020105086
  },
  {
    "callsign": "UAL43",
    "altitude": 62464,
    "grounded": false,
    "speed": 438,
    "lat": 42.590973,
    "long": -4.074799,
    "heading": 276.6,
    "aircraftType": "B763",
    "airportFrom": {
      "code": "FCO",
      "lat": 41.8026,
      "long": 12.2551,
      "name": "Leonardo da Vinci International Airport",
      "city": "Rome",
      "state": "Lazio",
      "country": "Italy"
    },
    "airportTo": {
      "code": "IAD",
      "lat": 38.9556,
      "long": -77.4484,
      "name": "Dulles International Airport",
      "city": "Washington",
      "state": "Virginia",
      "country": "United States"
    },
    "ageInYears": 26,
    "flightPercentComplete": 17.131397244688262
  },
  {
    "callsign": "UAL252",
    "altitude": 5875,
    "grounded": false,
    "speed": 275,
    "lat": 29.892197,
    "long": -95.377332,
    "heading": 90.2,
    "aircraftType": "B772",
    "airportFrom": {
      "code": "HNL",
      "lat": 21.3358,
      "long": -157.919,
      "name": "Honolulu International Airport",
      "city": "Honolulu",
      "state": "Hawaii",
      "country": "United States"
    },
    "airportTo": {
      "code": "IAH",
      "lat": 29.9784,
      "long": -95.3424,
      "name": "George Bush Intercontinental Airport",
      "city": "Houston",
      "state": "Texas",
      "country": "United States"
    },
    "ageInYears": 18,
    "flightPercentComplete": 99.8380056418705
  },
  {
    "callsign": "UAL2174",
    "altitude": 250,
    "grounded": false,
    "speed": 135,
    "lat": 40.730137,
    "long": -74.140984,
    "heading": 206,
    "aircraftType": "A319",
    "airportFrom": {
      "code": "PBI",
      "lat": 26.6909,
      "long": -80.0889,
      "name": "Palm Beach International Airport",
      "city": "West Palm Beach",
      "state": "Florida",
      "country": "United States"
    },
    "airportTo": {
      "code": "EWR",
      "lat": 40.6924,
      "long": -74.1843,
      "name": "Newark International Airport",
      "city": "Newark",
      "state": "New Jersey",
      "country": "United States"
    },
    "ageInYears": 17,
    "flightPercentComplete": 99.66267164897641
  },
  {
    "callsign": "UAL2214",
    "altitude": 34000,
    "grounded": false,
    "speed": 450.9,
    "lat": 41.090776,
    "long": -97.778508,
    "heading": 266.4,
    "aircraftType": "B739",
    "airportFrom": {
      "code": "BOS",
      "lat": 42.3717,
      "long": -71.0281,
      "name": "Gen E L Logan International Airport",
      "city": "Boston",
      "state": "Massachusetts",
      "country": "United States"
    },
    "airportTo": {
      "code": "DEN",
      "lat": 39.8396,
      "long": -104.672,
      "name": "Denver International Airport",
      "city": "Denver",
      "state": "Colorado",
      "country": "United States"
    },
    "flightPercentComplete": 78.70401205921547
  },
  {
    "callsign": "UAL125",
    "altitude": 32075,
    "grounded": false,
    "speed": 462.8,
    "lat": 52.451151,
    "long": -5.906642,
    "heading": 298.9,
    "aircraftType": "B764",
    "airportFrom": {
      "code": "ATH",
      "lat": 37.8937,
      "long": 23.7235,
      "name": "Eleftherios Venizelos International Airport",
      "city": "Athens",
      "state": "Attiki",
      "country": "Greece"
    },
    "airportTo": {
      "code": "EWR",
      "lat": 40.6924,
      "long": -74.1843,
      "name": "Newark International Airport",
      "city": "Newark",
      "state": "New Jersey",
      "country": "United States"
    },
    "ageInYears": 16,
    "flightPercentComplete": 34.87453981541303
  },
  {
    "callsign": "UAL1666",
    "altitude": 33000,
    "grounded": false,
    "speed": 454.7,
    "lat": 30.028381,
    "long": -92.614746,
    "heading": 77.6,
    "aircraftType": "B738",
    "airportFrom": {
      "code": "LAX",
      "lat": 33.9456,
      "long": -118.391,
      "name": "Los Angeles International Airport",
      "city": "Los Angeles",
      "state": "California",
      "country": "United States"
    },
    "airportTo": {
      "code": "EWR",
      "lat": 40.6924,
      "long": -74.1843,
      "name": "Newark International Airport",
      "city": "Newark",
      "state": "New Jersey",
      "country": "United States"
    },
    "airportStops": [
      {
        "code": "IAH",
        "lat": 29.9784,
        "long": -95.3424,
        "name": "George Bush Intercontinental Airport",
        "city": "Houston",
        "state": "Texas",
        "country": "United States"
      }
    ],
    "ageInYears": 10,
    "flightPercentComplete": 48.1403833394988
  },
  {
    "callsign": "UAL164",
    "altitude": 35000,
    "grounded": false,
    "speed": 443.6,
    "lat": 40.037206,
    "long": -30.495987,
    "heading": 273.1,
    "aircraftType": "B752",
    "airportFrom": {
      "code": "MAD",
      "lat": 40.4684,
      "long": -3.56769,
      "name": "Barajas Airport",
      "city": "Madrid",
      "state": "Madrid",
      "country": "Spain"
    },
    "airportTo": {
      "code": "IAD",
      "lat": 38.9556,
      "long": -77.4484,
      "name": "Dulles International Airport",
      "city": "Washington",
      "state": "Virginia",
      "country": "United States"
    },
    "ageInYears": 24,
    "flightPercentComplete": 34.976508482140915
  },
  {
    "callsign": "UAL1269",
    "altitude": 800,
    "grounded": false,
    "speed": 146,
    "lat": 42.002874,
    "long": -87.886729,
    "heading": 270.4,
    "aircraftType": "B739",
    "airportFrom": {
      "code": "YVR",
      "lat": 49.1931,
      "long": -123.172,
      "name": "Vancouver International Airport",
      "city": "Richmond",
      "state": "British Columbia",
      "country": "Canada"
    },
    "airportTo": {
      "code": "ORD",
      "lat": 41.9796,
      "long": -87.8825,
      "name": "Chicago O'Hare International Airport",
      "city": "Chicago",
      "state": "Illinois",
      "country": "United States"
    },
    "ageInYears": 3,
    "flightPercentComplete": 99.9077904758702
  },
  {
    "callsign": "UAL90",
    "altitude": 28200,
    "grounded": false,
    "speed": 491,
    "lat": 33.22435,
    "long": 33.092413,
    "heading": 128.4,
    "aircraftType": "B773",
    "airportFrom": {
      "code": "EWR",
      "lat": 40.6924,
      "long": -74.1843,
      "name": "Newark International Airport",
      "city": "Newark",
      "state": "New Jersey",
      "country": "United States"
    },
    "airportTo": {
      "code": "TLV",
      "lat": 32.0117,
      "long": 34.8861,
      "name": "Ben Gurion Airport",
      "city": "Petaẖ Tiqwa",
      "state": "HaMerkaz",
      "country": "Israel"
    },
    "ageInYears": 2,
    "flightPercentComplete": 97.6435656363997
  },
  {
    "callsign": "UAL919",
    "altitude": 36975,
    "grounded": false,
    "speed": 481.6,
    "lat": 53.889175,
    "long": -10.884783,
    "heading": 296.5,
    "aircraftType": "B788",
    "airportFrom": {
      "code": "LHR",
      "lat": 51.4703,
      "long": -0.45342,
      "name": "London Heathrow Airport",
      "city": "Hounslow",
      "state": "England",
      "country": "United Kingdom"
    },
    "airportTo": {
      "code": "IAD",
      "lat": 38.9556,
      "long": -77.4484,
      "name": "Dulles International Airport",
      "city": "Washington",
      "state": "Virginia",
      "country": "United States"
    },
    "ageInYears": 6,
    "flightPercentComplete": 12.655111714907296
  },
  {
    "callsign": "UAL2364",
    "altitude": 4125,
    "grounded": false,
    "speed": 220.8,
    "lat": 40.891951,
    "long": -74.131248,
    "heading": 132.8,
    "aircraftType": "B753",
    "airportFrom": {
      "code": "SFO",
      "lat": 37.6148,
      "long": -122.392,
      "name": "San Francisco International Airport",
      "city": "San Francisco",
      "state": "California",
      "country": "United States"
    },
    "airportTo": {
      "code": "EWR",
      "lat": 40.6924,
      "long": -74.1843,
      "name": "Newark International Airport",
      "city": "Newark",
      "state": "New Jersey",
      "country": "United States"
    },
    "ageInYears": 15,
    "flightPercentComplete": 99.45045359462735
  },
  {
    "callsign": "UAL1968",
    "altitude": 1025,
    "grounded": false,
    "speed": 178,
    "lat": 39.901737,
    "long": -75.088745,
    "heading": 256,
    "aircraftType": "B739",
    "airportFrom": {
      "code": "SFO",
      "lat": 37.6148,
      "long": -122.392,
      "name": "San Francisco International Airport",
      "city": "San Francisco",
      "state": "California",
      "country": "United States"
    },
    "airportTo": {
      "code": "PHL",
      "lat": 39.8768,
      "long": -75.2419,
      "name": "Philadelphia International Airport",
      "city": "Philadelphia",
      "state": "Pennsylvania",
      "country": "United States"
    },
    "ageInYears": 5,
    "flightPercentComplete": 99.67010545438714
  },
  {
    "callsign": "UAL914",
    "altitude": 33975,
    "grounded": false,
    "speed": 459.3,
    "lat": 54.73924,
    "long": -10.93947,
    "heading": 277.9,
    "aircraftType": "B772",
    "airportFrom": {
      "code": "CDG",
      "lat": 49.0175,
      "long": 2.5564,
      "name": "Charles de Gaulle International Airport",
      "city": "Le Mesnil-Amelot",
      "state": "Ile-de-France",
      "country": "France"
    },
    "airportTo": {
      "code": "IAD",
      "lat": 38.9556,
      "long": -77.4484,
      "name": "Dulles International Airport",
      "city": "Washington",
      "state": "Virginia",
      "country": "United States"
    },
    "ageInYears": 20,
    "flightPercentComplete": 17.119534863808394
  },
  {
    "callsign": "UAL426",
    "altitude": 5094,
    "grounded": false,
    "speed": 3,
    "lat": 40.720139,
    "long": -74.147217,
    "heading": 154.7,
    "aircraftType": "B739",
    "airportFrom": {
      "code": "PHX",
      "lat": 33.4376,
      "long": -112.03,
      "name": "Sky Harbor International Airport",
      "city": "Phoenix",
      "state": "Arizona",
      "country": "United States"
    },
    "airportTo": {
      "code": "EWR",
      "lat": 40.6924,
      "long": -74.1843,
      "name": "Newark International Airport",
      "city": "Newark",
      "state": "New Jersey",
      "country": "United States"
    },
    "ageInYears": 6,
    "flightPercentComplete": 99.87179898092985
  },
  {
    "callsign": "UAL1617",
    "altitude": 36000,
    "grounded": false,
    "speed": 447.9,
    "lat": 34.896744,
    "long": -80.540659,
    "heading": 201.8,
    "aircraftType": "B738",
    "airportFrom": {
      "code": "IAD",
      "lat": 38.9556,
      "long": -77.4484,
      "name": "Dulles International Airport",
      "city": "Washington",
      "state": "Virginia",
      "country": "United States"
    },
    "airportTo": {
      "code": "CUN",
      "lat": 21.0406,
      "long": -86.8744,
      "name": "Cancun Airport",
      "city": "Cancun",
      "state": "Quintana Roo",
      "country": "Mexico"
    },
    "ageInYears": 13,
    "flightPercentComplete": 24.037785929114875
  },
  {
    "callsign": "UAL1142",
    "altitude": 1125,
    "grounded": false,
    "speed": 183,
    "lat": 33.64912,
    "long": -84.31778,
    "heading": 271.6,
    "aircraftType": "A320",
    "airportFrom": {
      "code": "IAD",
      "lat": 38.9556,
      "long": -77.4484,
      "name": "Dulles International Airport",
      "city": "Washington",
      "state": "Virginia",
      "country": "United States"
    },
    "airportTo": {
      "code": "MBJ",
      "lat": 18.5042,
      "long": -77.9125,
      "name": "Sangster International Airport",
      "city": "Montego Bay",
      "state": "Saint James",
      "country": "Jamaica"
    },
    "ageInYears": 23,
    "flightPercentComplete": 20.850015384592567
  },
  {
    "callsign": "UAL415",
    "altitude": 8625,
    "grounded": false,
    "speed": 269.2,
    "lat": 40.633804,
    "long": -74.417847,
    "heading": 296.5,
    "aircraftType": "B772",
    "airportFrom": {
      "code": "LAX",
      "lat": 33.9456,
      "long": -118.391,
      "name": "Los Angeles International Airport",
      "city": "Los Angeles",
      "state": "California",
      "country": "United States"
    },
    "airportTo": {
      "code": "EWR",
      "lat": 40.6924,
      "long": -74.1843,
      "name": "Newark International Airport",
      "city": "Newark",
      "state": "New Jersey",
      "country": "United States"
    },
    "ageInYears": 22,
    "flightPercentComplete": 99.4731343407438
  },
  {
    "callsign": "UAL723",
    "altitude": 34000,
    "grounded": false,
    "speed": 472,
    "lat": 40.539131,
    "long": -94.095718,
    "heading": 256.8,
    "aircraftType": "B739",
    "airportFrom": {
      "code": "DEN",
      "lat": 39.8396,
      "long": -104.672,
      "name": "Denver International Airport",
      "city": "Denver",
      "state": "Colorado",
      "country": "United States"
    },
    "airportTo": {
      "code": "DSM",
      "lat": 41.5328,
      "long": -93.6481,
      "name": "Des Moines International Airport",
      "city": "Des Moines",
      "state": "Iowa",
      "country": "United States"
    },
    "ageInYears": 9,
    "flightPercentComplete": 87.68635465178771
  },
  {
    "callsign": "UAL2014",
    "altitude": 10100,
    "grounded": false,
    "speed": 322.3,
    "lat": 36.405014,
    "long": -78.928995,
    "heading": 177.7,
    "aircraftType": "B738",
    "airportFrom": {
      "code": "SFO",
      "lat": 37.6148,
      "long": -122.392,
      "name": "San Francisco International Airport",
      "city": "San Francisco",
      "state": "California",
      "country": "United States"
    },
    "airportTo": {
      "code": "LGA",
      "lat": 40.7731,
      "long": -73.8756,
      "name": "LaGuardia Airport",
      "city": "Flushing",
      "state": "New York",
      "country": "United States"
    },
    "airportStops": [
      {
        "code": "DEN",
        "lat": 39.8396,
        "long": -104.672,
        "name": "Denver International Airport",
        "city": "Denver",
        "state": "Colorado",
        "country": "United States"
      }
    ],
    "ageInYears": 1,
    "flightPercentComplete": 84.19762448925918
  },
  {
    "callsign": "UAL2037",
    "altitude": 5900,
    "grounded": false,
    "speed": 237,
    "lat": 30.204023,
    "long": -94.69841,
    "heading": 196.4,
    "aircraftType": "B739",
    "airportFrom": {
      "code": "IAH",
      "lat": 29.9784,
      "long": -95.3424,
      "name": "George Bush Intercontinental Airport",
      "city": "Houston",
      "state": "Texas",
      "country": "United States"
    },
    "airportTo": {
      "code": "MCO",
      "lat": 28.4418,
      "long": -81.3115,
      "name": "Orlando International Airport",
      "city": "Orlando",
      "state": "Florida",
      "country": "United States"
    },
    "ageInYears": 5,
    "flightPercentComplete": 4.361354858498312
  },
  {
    "callsign": "UAL1797",
    "altitude": 350,
    "grounded": false,
    "speed": 130.1,
    "lat": 28.010971,
    "long": -82.527448,
    "heading": 181.8,
    "aircraftType": "B752",
    "airportFrom": {
      "code": "TPA",
      "lat": 27.9744,
      "long": -82.5356,
      "name": "Tampa International Airport",
      "city": "Tampa",
      "state": "Florida",
      "country": "United States"
    },
    "airportTo": {
      "code": "PHX",
      "lat": 33.4376,
      "long": -112.03,
      "name": "Sky Harbor International Airport",
      "city": "Phoenix",
      "state": "Arizona",
      "country": "United States"
    },
    "airportStops": [
      {
        "code": "IAH",
        "lat": 29.9784,
        "long": -95.3424,
        "name": "George Bush Intercontinental Airport",
        "city": "Houston",
        "state": "Texas",
        "country": "United States"
      }
    ],
    "ageInYears": 24,
    "flightPercentComplete": 0.021024278135350905
  },
  {
    "callsign": "UAL581",
    "altitude": 36000,
    "grounded": false,
    "speed": 457.4,
    "lat": 38.096443,
    "long": -101.868339,
    "heading": 254.1,
    "aircraftType": "B739",
    "airportFrom": {
      "code": "EWR",
      "lat": 40.6924,
      "long": -74.1843,
      "name": "Newark International Airport",
      "city": "Newark",
      "state": "New Jersey",
      "country": "United States"
    },
    "airportTo": {
      "code": "PHX",
      "lat": 33.4376,
      "long": -112.03,
      "name": "Sky Harbor International Airport",
      "city": "Phoenix",
      "state": "Arizona",
      "country": "United States"
    },
    "ageInYears": 4,
    "flightPercentComplete": 69.28445253990657
  },
  {
    "callsign": "UAL1048",
    "altitude": 34000,
    "grounded": false,
    "speed": 454.2,
    "lat": 35.578758,
    "long": -80.211649,
    "heading": 202.4,
    "aircraftType": "B739",
    "airportFrom": {
      "code": "EWR",
      "lat": 40.6924,
      "long": -74.1843,
      "name": "Newark International Airport",
      "city": "Newark",
      "state": "New Jersey",
      "country": "United States"
    },
    "airportTo": {
      "code": "CUN",
      "lat": 21.0406,
      "long": -86.8744,
      "name": "Cancun Airport",
      "city": "Cancun",
      "state": "Quintana Roo",
      "country": "Mexico"
    },
    "ageInYears": 3,
    "flightPercentComplete": 30.101203365039975
  },
  {
    "callsign": "UAL1615",
    "altitude": 34000,
    "grounded": false,
    "speed": 461,
    "lat": 41.270002,
    "long": -94.030297,
    "heading": 266.1,
    "aircraftType": "B739",
    "airportFrom": {
      "code": "CLE",
      "lat": 41.4115,
      "long": -81.8339,
      "name": "Hopkins International Airport",
      "city": "Cleveland",
      "state": "Ohio",
      "country": "United States"
    },
    "airportTo": {
      "code": "SFO",
      "lat": 37.6148,
      "long": -122.392,
      "name": "San Francisco International Airport",
      "city": "San Francisco",
      "state": "California",
      "country": "United States"
    },
    "ageInYears": 3,
    "flightPercentComplete": 29.22554490315018
  },
  {
    "callsign": "UAL2055",
    "altitude": 27975,
    "grounded": false,
    "speed": 420.9,
    "lat": 40.907034,
    "long": -89.215851,
    "heading": 274.8,
    "aircraftType": "A320",
    "airportFrom": {
      "code": "BWI",
      "lat": 39.1841,
      "long": -76.6745,
      "name": "Baltimore-Washington International Thurgood Mars",
      "city": "Baltimore",
      "state": "Maryland",
      "country": "United States"
    },
    "airportTo": {
      "code": "PDX",
      "lat": 45.5867,
      "long": -122.587,
      "name": "Portland International Airport",
      "city": "Portland",
      "state": "Oregon",
      "country": "United States"
    },
    "airportStops": [
      {
        "code": "SFO",
        "lat": 37.6148,
        "long": -122.392,
        "name": "San Francisco International Airport",
        "city": "San Francisco",
        "state": "California",
        "country": "United States"
      }
    ],
    "ageInYears": 17,
    "flightPercentComplete": 27.806466241925055
  },
  {
    "callsign": "UAL2402",
    "altitude": 125,
    "grounded": false,
    "speed": 9.5,
    "lat": 42.35915,
    "long": -71.016328,
    "heading": 19.7,
    "aircraftType": "B739",
    "airportFrom": {
      "code": "LAX",
      "lat": 33.9456,
      "long": -118.391,
      "name": "Los Angeles International Airport",
      "city": "Los Angeles",
      "state": "California",
      "country": "United States"
    },
    "airportTo": {
      "code": "BOS",
      "lat": 42.3717,
      "long": -71.0281,
      "name": "Gen E L Logan International Airport",
      "city": "Boston",
      "state": "Massachusetts",
      "country": "United States"
    },
    "ageInYears": 7,
    "flightPercentComplete": 99.9594733905461
  },
  {
    "callsign": "UAL606",
    "altitude": 33000,
    "grounded": false,
    "speed": 448.3,
    "lat": 40.655731,
    "long": -88.791138,
    "heading": 272.2,
    "aircraftType": "B739",
    "airportFrom": {
      "code": "FLL",
      "lat": 26.0722,
      "long": -80.1354,
      "name": "Fort Lauderdale Hollywood International Airport",
      "city": "Dania Beach",
      "state": "Florida",
      "country": "United States"
    },
    "airportTo": {
      "code": "SFO",
      "lat": 37.6148,
      "long": -122.392,
      "name": "San Francisco International Airport",
      "city": "San Francisco",
      "state": "California",
      "country": "United States"
    },
    "ageInYears": 2,
    "flightPercentComplete": 30.18588175538548
  },
  {
    "callsign": "UAL1846",
    "altitude": 16450,
    "grounded": false,
    "speed": 377.9,
    "lat": 42.126517,
    "long": -88.67998,
    "heading": 290.9,
    "aircraftType": "B739",
    "airportFrom": {
      "code": "ORD",
      "lat": 41.9796,
      "long": -87.8825,
      "name": "Chicago O'Hare International Airport",
      "city": "Chicago",
      "state": "Illinois",
      "country": "United States"
    },
    "airportTo": {
      "code": "PSP",
      "lat": 33.8227,
      "long": -116.509,
      "name": "Palm Springs International Airport",
      "city": "Palm Springs",
      "state": "California",
      "country": "United States"
    },
    "ageInYears": 3,
    "flightPercentComplete": 2.315035996293191
  },
  {
    "callsign": "UAL85",
    "altitude": 36000,
    "grounded": false,
    "speed": 480.7,
    "lat": 51.123249,
    "long": 8.770599,
    "heading": 302.6,
    "aircraftType": "B772",
    "airportFrom": {
      "code": "TLV",
      "lat": 32.0117,
      "long": 34.8861,
      "name": "Ben Gurion Airport",
      "city": "Petaẖ Tiqwa",
      "state": "HaMerkaz",
      "country": "Israel"
    },
    "airportTo": {
      "code": "EWR",
      "lat": 40.6924,
      "long": -74.1843,
      "name": "Newark International Airport",
      "city": "Newark",
      "state": "New Jersey",
      "country": "United States"
    },
    "ageInYears": 19,
    "flightPercentComplete": 32.450556199840385
  },
  {
    "callsign": "UAL404",
    "altitude": 29950,
    "grounded": false,
    "speed": 433.2,
    "lat": 30.237587,
    "long": -97.166931,
    "heading": 279.6,
    "aircraftType": "B738",
    "airportFrom": {
      "code": "IAH",
      "lat": 29.9784,
      "long": -95.3424,
      "name": "George Bush Intercontinental Airport",
      "city": "Houston",
      "state": "Texas",
      "country": "United States"
    },
    "airportTo": {
      "code": "SFO",
      "lat": 37.6148,
      "long": -122.392,
      "name": "San Francisco International Airport",
      "city": "San Francisco",
      "state": "California",
      "country": "United States"
    },
    "ageInYears": 17,
    "flightPercentComplete": 6.476275079472904
  },
  {
    "callsign": "UAL2264",
    "altitude": 15750,
    "grounded": false,
    "speed": 304.3,
    "lat": 41.884781,
    "long": -88.435385,
    "heading": 253,
    "aircraftType": "B752",
    "airportFrom": {
      "code": "SFO",
      "lat": 37.6148,
      "long": -122.392,
      "name": "San Francisco International Airport",
      "city": "San Francisco",
      "state": "California",
      "country": "United States"
    },
    "airportTo": {
      "code": "ORD",
      "lat": 41.9796,
      "long": -87.8825,
      "name": "Chicago O'Hare International Airport",
      "city": "Chicago",
      "state": "Illinois",
      "country": "United States"
    },
    "ageInYears": 23,
    "flightPercentComplete": 98.41828924383192
  },
  {
    "callsign": "UAL2237",
    "altitude": 225,
    "grounded": false,
    "speed": 150,
    "lat": 28.466949,
    "long": -81.32724,
    "heading": 179,
    "aircraftType": "B739",
    "airportFrom": {
      "code": "SFO",
      "lat": 37.6148,
      "long": -122.392,
      "name": "San Francisco International Airport",
      "city": "San Francisco",
      "state": "California",
      "country": "United States"
    },
    "airportTo": {
      "code": "MCO",
      "lat": 28.4418,
      "long": -81.3115,
      "name": "Orlando International Airport",
      "city": "Orlando",
      "state": "Florida",
      "country": "United States"
    },
    "ageInYears": 6,
    "flightPercentComplete": 99.91877821720252
  },
  {
    "callsign": "UAL421",
    "altitude": 1350,
    "grounded": false,
    "speed": 187,
    "lat": 40.759277,
    "long": -74.122509,
    "heading": 205.8,
    "aircraftType": "B752",
    "airportFrom": {
      "code": "ATL",
      "lat": 33.6558,
      "long": -84.4333,
      "name": "Hartsfield-Jackson Atlanta International Airport",
      "city": "Atlanta",
      "state": "Georgia",
      "country": "United States"
    },
    "airportTo": {
      "code": "EWR",
      "lat": 40.6924,
      "long": -74.1843,
      "name": "Newark International Airport",
      "city": "Newark",
      "state": "New Jersey",
      "country": "United States"
    },
    "ageInYears": 22,
    "flightPercentComplete": 99.24168392663316
  },
  {
    "callsign": "UAL577",
    "altitude": 35975,
    "grounded": false,
    "speed": 427.4,
    "lat": 37.964951,
    "long": -92.241737,
    "heading": 274.7,
    "aircraftType": "A319",
    "airportFrom": {
      "code": "SFO",
      "lat": 37.6148,
      "long": -122.392,
      "name": "San Francisco International Airport",
      "city": "San Francisco",
      "state": "California",
      "country": "United States"
    },
    "airportTo": {
      "code": "EWR",
      "lat": 40.6924,
      "long": -74.1843,
      "name": "Newark International Airport",
      "city": "Newark",
      "state": "New Jersey",
      "country": "United States"
    },
    "ageInYears": 20,
    "flightPercentComplete": 61.6502353005377
  },
  {
    "callsign": "UAL922",
    "altitude": 36000,
    "grounded": false,
    "speed": 469.3,
    "lat": 29.373825,
    "long": -91.773817,
    "heading": 281.4,
    "aircraftType": "B738",
    "airportFrom": {
      "code": "LHR",
      "lat": 51.4703,
      "long": -0.45342,
      "name": "London Heathrow Airport",
      "city": "Hounslow",
      "state": "England",
      "country": "United Kingdom"
    },
    "airportTo": {
      "code": "EWR",
      "lat": 40.6924,
      "long": -74.1843,
      "name": "Newark International Airport",
      "city": "Newark",
      "state": "New Jersey",
      "country": "United States"
    },
    "flightPercentComplete": 63.50822359563283
  },
  {
    "callsign": "UAL1698",
    "altitude": 31975,
    "grounded": false,
    "speed": 436.6,
    "lat": 37.841263,
    "long": -91.654786,
    "heading": 282,
    "aircraftType": "A320",
    "airportFrom": {
      "code": "RDU",
      "lat": 35.8729,
      "long": -78.7923,
      "name": "Durham International Airport",
      "city": "Raleigh/Durham",
      "state": "North Carolina",
      "country": "United States"
    },
    "airportTo": {
      "code": "SFO",
      "lat": 37.6148,
      "long": -122.392,
      "name": "San Francisco International Airport",
      "city": "San Francisco",
      "state": "California",
      "country": "United States"
    },
    "ageInYears": 19,
    "flightPercentComplete": 30.18654191800939
  },
  {
    "callsign": "UAL1753",
    "altitude": 34000,
    "grounded": false,
    "speed": 456,
    "lat": 41.308273,
    "long": -93.677002,
    "heading": 261.8,
    "aircraftType": "B739",
    "airportFrom": {
      "code": "EWR",
      "lat": 40.6924,
      "long": -74.1843,
      "name": "Newark International Airport",
      "city": "Newark",
      "state": "New Jersey",
      "country": "United States"
    },
    "airportTo": {
      "code": "IAH",
      "lat": 29.9784,
      "long": -95.3424,
      "name": "George Bush Intercontinental Airport",
      "city": "Houston",
      "state": "Texas",
      "country": "United States"
    },
    "airportStops": [
      {
        "code": "LAS",
        "lat": 36.0806,
        "long": -115.143,
        "name": "Mccarran International Airport",
        "city": "Las Vegas",
        "state": "Nevada",
        "country": "United States"
      }
    ],
    "ageInYears": 3,
    "flightPercentComplete": 43.608905881366276
  }
]
