[
  {
    "callsign": "SWA9001",
    "altitude": 19700,
    "grounded": false,
    "speed": 393.5,
    "lat": 39.026789,
    "long": -77.575195,
    "heading": 262.4,
    "aircraftType": "B738",
    "airportFrom": {
      "code": "BOS",
      "lat": 42.3717,
      "long": -71.0281,
      "name": "Gen E L Logan International Airport",
      "city": "Boston",
      "state": "Massachusetts",
      "country": "United States"
    },
    "airportTo": {
      "code": "AUS",
      "lat": 30.2027,
      "long": -97.6653,
      "name": "Austin-Bergstrom International Airport",
      "city": "Austin",
      "state": "Texas",
      "country": "United States"
    },
    "ageInYears": 1,
    "flightPercentComplete": 23.833263656555314
  },
  {
    "callsign": "SWA795",
    "altitude": 15475,
    "grounded": false,
    "speed": 372,
    "lat": 35.932228,
    "long": -114.908051,
    "heading": 90.5,
    "aircraftType": "B738",
    "airportFrom": {
      "code": "LAS",
      "lat": 36.0806,
      "long": -115.143,
      "name": "Mccarran International Airport",
      "city": "Las Vegas",
      "state": "Nevada",
      "country": "United States"
    },
    "airportTo": {
      "code": "PVD",
      "lat": 41.723,
      "long": -71.4399,
      "name": "Theodore Francis Green State Airport",
      "city": "Warwick",
      "state": "Rhode Island",
      "country": "United States"
    },
    "airportStops": [
      {
        "code": "MDW",
        "lat": 41.7875,
        "long": -87.7416,
        "name": "Chicago Midway International Airport",
        "city": "Chicago",
        "state": "Illinois",
        "country": "United States"
      }
    ],
    "flightPercentComplete": 0.34083912520714854
  },
  {
    "callsign": "SWA2252",
    "altitude": 28325,
    "grounded": false,
    "speed": 434.8,
    "lat": 39.776839,
    "long": -78.290588,
    "heading": 299.3,
    "aircraftType": "B738",
    "airportFrom": {
      "code": "DAL",
      "lat": 32.8439,
      "long": -96.8496,
      "name": "Dallas Love Field Airport",
      "city": "Dallas",
      "state": "Texas",
      "country": "United States"
    },
    "airportTo": {
      "code": "MDW",
      "lat": 41.7875,
      "long": -87.7416,
      "name": "Chicago Midway International Airport",
      "city": "Chicago",
      "state": "Illinois",
      "country": "United States"
    },
    "airportStops": [
      {
        "code": "LIT",
        "lat": 34.7278,
        "long": -92.219,
        "name": "Adams Field Airport",
        "city": "Little Rock",
        "state": "Arkansas",
        "country": "United States"
      }
    ],
    "ageInYears": 4,
    "flightPercentComplete": 35.37030915391913
  },
  {
    "callsign": "SWA662",
    "altitude": 32325,
    "grounded": false,
    "speed": 459.2,
    "lat": 39.276495,
    "long": -102.602234,
    "heading": 109.1,
    "aircraftType": "B738",
    "airportFrom": {
      "code": "DAL",
      "lat": 32.8439,
      "long": -96.8496,
      "name": "Dallas Love Field Airport",
      "city": "Dallas",
      "state": "Texas",
      "country": "United States"
    },
    "airportTo": {
      "code": "SJC",
      "lat": 37.3679,
      "long": -121.926,
      "name": "Norman Y Mineta San Jose International Airport",
      "city": "San Jose",
      "state": "California",
      "country": "United States"
    },
    "airportStops": [
      {
        "code": "LAX",
        "lat": 33.9456,
        "long": -118.391,
        "name": "Los Angeles International Airport",
        "city": "Los Angeles",
        "state": "California",
        "country": "United States"
      }
    ],
    "ageInYears": 1,
    "flightPercentComplete": 27.17562537439495
  },
  {
    "callsign": "SWA2538",
    "altitude": 38750,
    "grounded": false,
    "speed": 441.2,
    "lat": 39.190839,
    "long": -102.296814,
    "heading": 109.5,
    "aircraftType": "B737",
    "airportFrom": {
      "code": "SMF",
      "lat": 38.683,
      "long": -121.591,
      "name": "Sacramento International Airport",
      "city": "Sacramento",
      "state": "California",
      "country": "United States"
    },
    "airportTo": {
      "code": "SAT",
      "lat": 29.5252,
      "long": -98.4729,
      "name": "San Antonio International Airport",
      "city": "San Antonio",
      "state": "Texas",
      "country": "United States"
    },
    "airportStops": [
      {
        "code": "BUR",
        "lat": 34.1963,
        "long": -118.352,
        "name": "Burbank Glendale Pasadena Airport",
        "city": "Burbank",
        "state": "California",
        "country": "United States"
      },
      {
        "code": "LAS",
        "lat": 36.0806,
        "long": -115.143,
        "name": "Mccarran International Airport",
        "city": "Las Vegas",
        "state": "Nevada",
        "country": "United States"
      }
    ],
    "ageInYears": 12,
    "flightPercentComplete": 51.91234374802476
  },
  {
    "callsign": "SWA366",
    "altitude": 34650,
    "grounded": false,
    "speed": 453.2,
    "lat": 37.039754,
    "long": -76.881548,
    "heading": 198.4,
    "aircraftType": "B738",
    "airportFrom": {
      "code": "LAS",
      "lat": 36.0806,
      "long": -115.143,
      "name": "Mccarran International Airport",
      "city": "Las Vegas",
      "state": "Nevada",
      "country": "United States"
    },
    "airportTo": {
      "code": "BWI",
      "lat": 39.1841,
      "long": -76.6745,
      "name": "Baltimore-Washington International Thurgood Mars",
      "city": "Baltimore",
      "state": "Maryland",
      "country": "United States"
    },
    "airportStops": [
      {
        "code": "CMH",
        "lat": 39.9974,
        "long": -82.8877,
        "name": "Port Columbus International Airport",
        "city": "Columbus",
        "state": "Ohio",
        "country": "United States"
      }
    ],
    "ageInYears": 4,
    "flightPercentComplete": 92.92458550869482
  },
  {
    "callsign": "SWA750",
    "altitude": 38025,
    "grounded": false,
    "speed": 469,
    "lat": 27.612579,
    "long": -84.069298,
    "heading": 286,
    "aircraftType": "B38M",
    "airportFrom": {
      "code": "LAX",
      "lat": 33.9456,
      "long": -118.391,
      "name": "Los Angeles International Airport",
      "city": "Los Angeles",
      "state": "California",
      "country": "United States"
    },
    "airportTo": {
      "code": "MDW",
      "lat": 41.7875,
      "long": -87.7416,
      "name": "Chicago Midway International Airport",
      "city": "Chicago",
      "state": "Illinois",
      "country": "United States"
    },
    "airportStops": [
      {
        "code": "DEN",
        "lat": 39.8396,
        "long": -104.672,
        "name": "Denver International Airport",
        "city": "Denver",
        "state": "Colorado",
        "country": "United States"
      }
    ],
    "ageInYears": 2,
    "flightPercentComplete": 42.68383199458091
  },
  {
    "callsign": "SWA1997",
    "altitude": 36000,
    "grounded": false,
    "speed": 486,
    "lat": 38.995178,
    "long": -95.822388,
    "heading": 267.5,
    "aircraftType": "B738",
    "airportFrom": {
      "code": "LGA",
      "lat": 40.7731,
      "long": -73.8756,
      "name": "LaGuardia Airport",
      "city": "Flushing",
      "state": "New York",
      "country": "United States"
    },
    "airportTo": {
      "code": "BNA",
      "lat": 36.1342,
      "long": -86.6682,
      "name": "Nashville International Airport",
      "city": "Nashville",
      "state": "Tennessee",
      "country": "United States"
    },
    "ageInYears": 1,
    "flightPercentComplete": 29.297655037640858
  },
  {
    "callsign": "SWA425",
    "altitude": 30825,
    "grounded": false,
    "speed": 471.4,
    "lat": 36.640661,
    "long": -77.771691,
    "heading": 23,
    "aircraftType": "B737",
    "airportFrom": {
      "code": "FLL",
      "lat": 26.0722,
      "long": -80.1354,
      "name": "Fort Lauderdale Hollywood International Airport",
      "city": "Dania Beach",
      "state": "Florida",
      "country": "United States"
    },
    "airportTo": {
      "code": "MKE",
      "lat": 42.9471,
      "long": -87.9051,
      "name": "General Mitchell International Airport",
      "city": "Milwaukee",
      "state": "Wisconsin",
      "country": "United States"
    },
    "airportStops": [
      {
        "code": "BWI",
        "lat": 39.1841,
        "long": -76.6745,
        "name": "Baltimore-Washington International Thurgood Mars",
        "city": "Baltimore",
        "state": "Maryland",
        "country": "United States"
      }
    ],
    "ageInYears": 12,
    "flightPercentComplete": 44.4923898074275
  },
  {
    "callsign": "SWA2234",
    "altitude": 34000,
    "grounded": false,
    "speed": 449.2,
    "lat": 30.67804,
    "long": -102.700088,
    "heading": 291.1,
    "aircraftType": "B738",
    "airportFrom": {
      "code": "SFO",
      "lat": 37.6148,
      "long": -122.392,
      "name": "San Francisco International Airport",
      "city": "San Francisco",
      "state": "California",
      "country": "United States"
    },
    "airportTo": {
      "code": "PHX",
      "lat": 33.4376,
      "long": -112.03,
      "name": "Sky Harbor International Airport",
      "city": "Phoenix",
      "state": "Arizona",
      "country": "United States"
    },
    "airportStops": [
      {
        "code": "LAX",
        "lat": 33.9456,
        "long": -118.391,
        "name": "Los Angeles International Airport",
        "city": "Los Angeles",
        "state": "California",
        "country": "United States"
      }
    ],
    "flightPercentComplete": 10.977350552529309
  },
  {
    "callsign": "SWA1212",
    "altitude": 39000,
    "grounded": false,
    "speed": 455,
    "lat": 32.552814,
    "long": -81.127029,
    "heading": 8.6,
    "aircraftType": "B738",
    "airportFrom": {
      "code": "OAK",
      "lat": 37.7158,
      "long": -122.209,
      "name": "Oakland International Airport",
      "city": "Oakland",
      "state": "California",
      "country": "United States"
    },
    "airportTo": {
      "code": "TPA",
      "lat": 27.9744,
      "long": -82.5356,
      "name": "Tampa International Airport",
      "city": "Tampa",
      "state": "Florida",
      "country": "United States"
    },
    "airportStops": [
      {
        "code": "LAX",
        "lat": 33.9456,
        "long": -118.391,
        "name": "Los Angeles International Airport",
        "city": "Los Angeles",
        "state": "California",
        "country": "United States"
      },
      {
        "code": "ELP",
        "lat": 31.7982,
        "long": -106.393,
        "name": "El Paso International Airport",
        "city": "El Paso",
        "state": "Texas",
        "country": "United States"
      },
      {
        "code": "HOU",
        "lat": 29.6572,
        "long": -95.2795,
        "name": "William P Hobby Airport",
        "city": "Houston",
        "state": "Texas",
        "country": "United States"
      }
    ],
    "ageInYears": 4,
    "flightPercentComplete": 86.2466342176771
  },
  {
    "callsign": "SWA2229",
    "altitude": 39000,
    "grounded": false,
    "speed": 454,
    "lat": 32.203117,
    "long": -81.858627,
    "heading": 22.1,
    "aircraftType": "B738",
    "airportFrom": {
      "code": "LAX",
      "lat": 33.9456,
      "long": -118.391,
      "name": "Los Angeles International Airport",
      "city": "Los Angeles",
      "state": "California",
      "country": "United States"
    },
    "airportTo": {
      "code": "PHL",
      "lat": 39.8768,
      "long": -75.2419,
      "name": "Philadelphia International Airport",
      "city": "Philadelphia",
      "state": "Pennsylvania",
      "country": "United States"
    },
    "airportStops": [
      {
        "code": "LAS",
        "lat": 36.0806,
        "long": -115.143,
        "name": "Mccarran International Airport",
        "city": "Las Vegas",
        "state": "Nevada",
        "country": "United States"
      }
    ],
    "flightPercentComplete": 73.033023815081
  },
  {
    "callsign": "SWA2350",
    "altitude": 34000,
    "grounded": false,
    "speed": 406,
    "lat": 39.990921,
    "long": -79.815002,
    "heading": 270.3,
    "aircraftType": "B738",
    "airportFrom": {
      "code": "BDL",
      "lat": 41.9271,
      "long": -72.6816,
      "name": "Bradley International Airport",
      "city": "Windsor Locks",
      "state": "Connecticut",
      "country": "United States"
    },
    "airportTo": {
      "code": "TPA",
      "lat": 27.9744,
      "long": -82.5356,
      "name": "Tampa International Airport",
      "city": "Tampa",
      "state": "Florida",
      "country": "United States"
    },
    "airportStops": [
      {
        "code": "BWI",
        "lat": 39.1841,
        "long": -76.6745,
        "name": "Baltimore-Washington International Thurgood Mars",
        "city": "Baltimore",
        "state": "Maryland",
        "country": "United States"
      },
      {
        "code": "BNA",
        "lat": 36.1342,
        "long": -86.6682,
        "name": "Nashville International Airport",
        "city": "Nashville",
        "state": "Tennessee",
        "country": "United States"
      }
    ],
    "ageInYears": 1,
    "flightPercentComplete": 24.04888773321382
  },
  {
    "callsign": "SWA2219",
    "altitude": 39000,
    "grounded": false,
    "speed": 504.9,
    "lat": 41.368088,
    "long": -79.506496,
    "heading": 98,
    "aircraftType": "B737",
    "airportFrom": {
      "code": "MDW",
      "lat": 41.7875,
      "long": -87.7416,
      "name": "Chicago Midway International Airport",
      "city": "Chicago",
      "state": "Illinois",
      "country": "United States"
    },
    "airportTo": {
      "code": "MCO",
      "lat": 28.4418,
      "long": -81.3115,
      "name": "Orlando International Airport",
      "city": "Orlando",
      "state": "Florida",
      "country": "United States"
    },
    "ageInYears": 14,
    "flightPercentComplete": 9.235090544995527
  },
  {
    "callsign": "SWA1750",
    "altitude": 36025,
    "grounded": false,
    "speed": 433.9,
    "lat": 31.408356,
    "long": -104.719579,
    "heading": 287.4,
    "aircraftType": "B738",
    "airportFrom": {
      "code": "AUS",
      "lat": 30.2027,
      "long": -97.6653,
      "name": "Austin-Bergstrom International Airport",
      "city": "Austin",
      "state": "Texas",
      "country": "United States"
    },
    "airportTo": {
      "code": "SJC",
      "lat": 37.3679,
      "long": -121.926,
      "name": "Norman Y Mineta San Jose International Airport",
      "city": "San Jose",
      "state": "California",
      "country": "United States"
    },
    "ageInYears": 5,
    "flightPercentComplete": 27.93017661644901
  },
  {
    "callsign": "SWA2328",
    "altitude": 35000,
    "grounded": false,
    "speed": 452.2,
    "lat": 35.85728,
    "long": -83.01328,
    "heading": 205.3,
    "aircraftType": "B738",
    "airportFrom": {
      "code": "HOU",
      "lat": 29.6572,
      "long": -95.2795,
      "name": "William P Hobby Airport",
      "city": "Houston",
      "state": "Texas",
      "country": "United States"
    },
    "airportTo": {
      "code": "BUF",
      "lat": 42.9309,
      "long": -78.738,
      "name": "Greater Buffalo International Airport",
      "city": "Buffalo",
      "state": "New York",
      "country": "United States"
    },
    "airportStops": [
      {
        "code": "BHM",
        "lat": 33.5604,
        "long": -86.7492,
        "name": "Birmingham International Airport",
        "city": "Birmingham",
        "state": "Alabama",
        "country": "United States"
      },
      {
        "code": "TPA",
        "lat": 27.9744,
        "long": -82.5356,
        "name": "Tampa International Airport",
        "city": "Tampa",
        "state": "Florida",
        "country": "United States"
      },
      {
        "code": "BWI",
        "lat": 39.1841,
        "long": -76.6745,
        "name": "Baltimore-Washington International Thurgood Mars",
        "city": "Baltimore",
        "state": "Maryland",
        "country": "United States"
      }
    ],
    "ageInYears": 1,
    "flightPercentComplete": 58.36811966236084
  },
  {
    "callsign": "SWA143",
    "altitude": 36000,
    "grounded": false,
    "speed": 432.6,
    "lat": 35.621658,
    "long": -90.788898,
    "heading": 289,
    "aircraftType": "B738",
    "airportFrom": {
      "code": "TPA",
      "lat": 27.9744,
      "long": -82.5356,
      "name": "Tampa International Airport",
      "city": "Tampa",
      "state": "Florida",
      "country": "United States"
    },
    "airportTo": {
      "code": "MDW",
      "lat": 41.7875,
      "long": -87.7416,
      "name": "Chicago Midway International Airport",
      "city": "Chicago",
      "state": "Illinois",
      "country": "United States"
    },
    "airportStops": [
      {
        "code": "BWI",
        "lat": 39.1841,
        "long": -76.6745,
        "name": "Baltimore-Washington International Thurgood Mars",
        "city": "Baltimore",
        "state": "Maryland",
        "country": "United States"
      },
      {
        "code": "BOS",
        "lat": 42.3717,
        "long": -71.0281,
        "name": "Gen E L Logan International Airport",
        "city": "Boston",
        "state": "Massachusetts",
        "country": "United States"
      }
    ],
    "flightPercentComplete": 54.276601902067966
  },
  {
    "callsign": "SWA2050",
    "altitude": 39975,
    "grounded": false,
    "speed": 442,
    "lat": 33.930542,
    "long": -84.575951,
    "heading": 338.5,
    "aircraftType": "B737",
    "airportFrom": {
      "code": "TPA",
      "lat": 27.9744,
      "long": -82.5356,
      "name": "Tampa International Airport",
      "city": "Tampa",
      "state": "Florida",
      "country": "United States"
    },
    "airportTo": {
      "code": "SAN",
      "lat": 32.7299,
      "long": -117.195,
      "name": "San Diego International Airport",
      "city": "San Diego",
      "state": "California",
      "country": "United States"
    },
    "airportStops": [
      {
        "code": "PIT",
        "lat": 40.4914,
        "long": -80.2328,
        "name": "Pittsburgh International Airport",
        "city": "Coraopolis",
        "state": "Pennsylvania",
        "country": "United States"
      },
      {
        "code": "PHX",
        "lat": 33.4376,
        "long": -112.03,
        "name": "Sky Harbor International Airport",
        "city": "Phoenix",
        "state": "Arizona",
        "country": "United States"
      }
    ],
    "ageInYears": 14,
    "flightPercentComplete": 9.895699376165169
  },
  {
    "callsign": "SWA545",
    "altitude": 38000,
    "grounded": false,
    "speed": 408.1,
    "lat": 34.873911,
    "long": -102.736244,
    "heading": 293.2,
    "aircraftType": "B738",
    "airportFrom": {
      "code": "MHT",
      "lat": 42.9293,
      "long": -71.4386,
      "name": "Manchester-Boston Regional Airport",
      "city": "Manchester",
      "state": "New Hampshire",
      "country": "United States"
    },
    "airportTo": {
      "code": "DEN",
      "lat": 39.8396,
      "long": -104.672,
      "name": "Denver International Airport",
      "city": "Denver",
      "state": "Colorado",
      "country": "United States"
    },
    "airportStops": [
      {
        "code": "BWI",
        "lat": 39.1841,
        "long": -76.6745,
        "name": "Baltimore-Washington International Thurgood Mars",
        "city": "Baltimore",
        "state": "Maryland",
        "country": "United States"
      },
      {
        "code": "SAN",
        "lat": 32.7299,
        "long": -117.195,
        "name": "San Diego International Airport",
        "city": "San Diego",
        "state": "California",
        "country": "United States"
      }
    ],
    "flightPercentComplete": 79.17476152912396
  },
  {
    "callsign": "SWA2170",
    "altitude": 36000,
    "grounded": false,
    "speed": 412.7,
    "lat": 42.627745,
    "long": -77.033897,
    "heading": 254.7,
    "aircraftType": "B738",
    "airportFrom": {
      "code": "OAK",
      "lat": 37.7158,
      "long": -122.209,
      "name": "Oakland International Airport",
      "city": "Oakland",
      "state": "California",
      "country": "United States"
    },
    "airportTo": {
      "code": "MDW",
      "lat": 41.7875,
      "long": -87.7416,
      "name": "Chicago Midway International Airport",
      "city": "Chicago",
      "state": "Illinois",
      "country": "United States"
    },
    "airportStops": [
      {
        "code": "ONT",
        "lat": 34.062,
        "long": -117.594,
        "name": "Ontario International Airport",
        "city": "Ontario",
        "state": "California",
        "country": "United States"
      },
      {
        "code": "PHX",
        "lat": 33.4376,
        "long": -112.03,
        "name": "Sky Harbor International Airport",
        "city": "Phoenix",
        "state": "Arizona",
        "country": "United States"
      },
      {
        "code": "BNA",
        "lat": 36.1342,
        "long": -86.6682,
        "name": "Nashville International Airport",
        "city": "Nashville",
        "state": "Tennessee",
        "country": "United States"
      },
      {
        "code": "SAT",
        "lat": 29.5252,
        "long": -98.4729,
        "name": "San Antonio International Airport",
        "city": "San Antonio",
        "state": "Texas",
        "country": "United States"
      },
      {
        "code": "HOU",
        "lat": 29.6572,
        "long": -95.2795,
        "name": "William P Hobby Airport",
        "city": "Houston",
        "state": "Texas",
        "country": "United States"
      }
    ],
    "ageInYears": 6,
    "flightPercentComplete": 70.068596365364
  },
  {
    "callsign": "SWA2411",
    "altitude": 9900,
    "grounded": false,
    "speed": 276.2,
    "lat": 42.706418,
    "long": -88.427933,
    "heading": 351.3,
    "aircraftType": "B737",
    "airportFrom": {
      "code": "RDU",
      "lat": 35.8729,
      "long": -78.7923,
      "name": "Durham International Airport",
      "city": "Raleigh/Durham",
      "state": "North Carolina",
      "country": "United States"
    },
    "airportTo": {
      "code": "LIT",
      "lat": 34.7278,
      "long": -92.219,
      "name": "Adams Field Airport",
      "city": "Little Rock",
      "state": "Arkansas",
      "country": "United States"
    },
    "airportStops": [
      {
        "code": "STL",
        "lat": 38.7414,
        "long": -90.3647,
        "name": "Lambert St Louis International Airport",
        "city": "St. Louis",
        "state": "Missouri",
        "country": "United States"
      }
    ],
    "ageInYears": 16,
    "flightPercentComplete": 22.727851682498912
  },
  {
    "callsign": "SWA1265",
    "altitude": 37000,
    "grounded": false,
    "speed": 460.7,
    "lat": 34.465302,
    "long": -85.87867,
    "heading": 161.5,
    "aircraftType": "B738",
    "airportFrom": {
      "code": "HOU",
      "lat": 29.6572,
      "long": -95.2795,
      "name": "William P Hobby Airport",
      "city": "Houston",
      "state": "Texas",
      "country": "United States"
    },
    "airportTo": {
      "code": "TPA",
      "lat": 27.9744,
      "long": -82.5356,
      "name": "Tampa International Airport",
      "city": "Tampa",
      "state": "Florida",
      "country": "United States"
    },
    "airportStops": [
      {
        "code": "MCO",
        "lat": 28.4418,
        "long": -81.3115,
        "name": "Orlando International Airport",
        "city": "Orlando",
        "state": "Florida",
        "country": "United States"
      },
      {
        "code": "MDW",
        "lat": 41.7875,
        "long": -87.7416,
        "name": "Chicago Midway International Airport",
        "city": "Chicago",
        "state": "Illinois",
        "country": "United States"
      },
      {
        "code": "CMH",
        "lat": 39.9974,
        "long": -82.8877,
        "name": "Port Columbus International Airport",
        "city": "Columbus",
        "state": "Ohio",
        "country": "United States"
      },
      {
        "code": "BWI",
        "lat": 39.1841,
        "long": -76.6745,
        "name": "Baltimore-Washington International Thurgood Mars",
        "city": "Baltimore",
        "state": "Maryland",
        "country": "United States"
      },
      {
        "code": "ISP",
        "lat": 40.7891,
        "long": -73.0984,
        "name": "Long Island Macarthur Airport",
        "city": "Ronkonkoma",
        "state": "New York",
        "country": "United States"
      }
    ],
    "ageInYears": 1,
    "flightPercentComplete": 37.16685231618918
  },
  {
    "callsign": "SWA1247",
    "altitude": 37000,
    "grounded": false,
    "speed": 462.5,
    "lat": 34.023122,
    "long": -84.556789,
    "heading": 165.6,
    "aircraftType": "B738",
    "airportFrom": {
      "code": "PHL",
      "lat": 39.8768,
      "long": -75.2419,
      "name": "Philadelphia International Airport",
      "city": "Philadelphia",
      "state": "Pennsylvania",
      "country": "United States"
    },
    "airportTo": {
      "code": "SMF",
      "lat": 38.683,
      "long": -121.591,
      "name": "Sacramento International Airport",
      "city": "Sacramento",
      "state": "California",
      "country": "United States"
    },
    "airportStops": [
      {
        "code": "DEN",
        "lat": 39.8396,
        "long": -104.672,
        "name": "Denver International Airport",
        "city": "Denver",
        "state": "Colorado",
        "country": "United States"
      }
    ],
    "flightPercentComplete": 15.516665799041707
  },
  {
    "callsign": "SWA1106",
    "altitude": 38000,
    "grounded": false,
    "speed": 453.1,
    "lat": 35.131158,
    "long": -80.43417,
    "heading": 202,
    "aircraftType": "B738",
    "airportFrom": {
      "code": "STL",
      "lat": 38.7414,
      "long": -90.3647,
      "name": "Lambert St Louis International Airport",
      "city": "St. Louis",
      "state": "Missouri",
      "country": "United States"
    },
    "airportTo": {
      "code": "BWI",
      "lat": 39.1841,
      "long": -76.6745,
      "name": "Baltimore-Washington International Thurgood Mars",
      "city": "Baltimore",
      "state": "Maryland",
      "country": "United States"
    },
    "airportStops": [
      {
        "code": "LAS",
        "lat": 36.0806,
        "long": -115.143,
        "name": "Mccarran International Airport",
        "city": "Las Vegas",
        "state": "Nevada",
        "country": "United States"
      },
      {
        "code": "ONT",
        "lat": 34.062,
        "long": -117.594,
        "name": "Ontario International Airport",
        "city": "Ontario",
        "state": "California",
        "country": "United States"
      },
      {
        "code": "DAL",
        "lat": 32.8439,
        "long": -96.8496,
        "name": "Dallas Love Field Airport",
        "city": "Dallas",
        "state": "Texas",
        "country": "United States"
      },
      {
        "code": "MCI",
        "lat": 39.2992,
        "long": -94.7171,
        "name": "Kansas City International Airport",
        "city": "Kansas City",
        "state": "Missouri",
        "country": "United States"
      },
      {
        "code": "MSP",
        "lat": 44.8793,
        "long": -93.1987,
        "name": "Minneapolis St Paul International Airport",
        "city": "St. Paul",
        "state": "Minnesota",
        "country": "United States"
      }
    ],
    "ageInYears": 5,
    "flightPercentComplete": 52.657078553033934
  },
  {
    "callsign": "SWA2448",
    "altitude": 1225,
    "grounded": false,
    "speed": 137.8,
    "lat": 42.254954,
    "long": -83.345032,
    "heading": 208.6,
    "aircraftType": "B737",
    "airportFrom": {
      "code": "TPA",
      "lat": 27.9744,
      "long": -82.5356,
      "name": "Tampa International Airport",
      "city": "Tampa",
      "state": "Florida",
      "country": "United States"
    },
    "airportTo": {
      "code": "PVD",
      "lat": 41.723,
      "long": -71.4399,
      "name": "Theodore Francis Green State Airport",
      "city": "Warwick",
      "state": "Rhode Island",
      "country": "United States"
    },
    "airportStops": [
      {
        "code": "PHL",
        "lat": 39.8768,
        "long": -75.2419,
        "name": "Philadelphia International Airport",
        "city": "Philadelphia",
        "state": "Pennsylvania",
        "country": "United States"
      }
    ],
    "flightPercentComplete": 46.182095042803894
  },
  {
    "callsign": "SWA1552",
    "altitude": 20375,
    "grounded": false,
    "speed": 387.6,
    "lat": 34.446142,
    "long": -83.449287,
    "heading": 223.5,
    "aircraftType": "B737",
    "airportFrom": {
      "code": "SJC",
      "lat": 37.3679,
      "long": -121.926,
      "name": "Norman Y Mineta San Jose International Airport",
      "city": "San Jose",
      "state": "California",
      "country": "United States"
    },
    "airportTo": {
      "code": "IAD",
      "lat": 38.9556,
      "long": -77.4484,
      "name": "Dulles International Airport",
      "city": "Washington",
      "state": "Virginia",
      "country": "United States"
    },
    "airportStops": [
      {
        "code": "SNA",
        "lat": 33.6813,
        "long": -117.859,
        "name": "John Wayne Airport",
        "city": "Santa Ana",
        "state": "California",
        "country": "United States"
      },
      {
        "code": "MDW",
        "lat": 41.7875,
        "long": -87.7416,
        "name": "Chicago Midway International Airport",
        "city": "Chicago",
        "state": "Illinois",
        "country": "United States"
      }
    ],
    "ageInYears": 14,
    "flightPercentComplete": 80.98176601834327
  },
  {
    "callsign": "SWA2507",
    "altitude": 33650,
    "grounded": false,
    "speed": 465.8,
    "lat": 31.691849,
    "long": -87.513589,
    "heading": 54.9,
    "aircraftType": "B738",
    "airportFrom": {
      "code": "TPA",
      "lat": 27.9744,
      "long": -82.5356,
      "name": "Tampa International Airport",
      "city": "Tampa",
      "state": "Florida",
      "country": "United States"
    },
    "airportTo": {
      "code": "MSP",
      "lat": 44.8793,
      "long": -93.1987,
      "name": "Minneapolis St Paul International Airport",
      "city": "St. Paul",
      "state": "Minnesota",
      "country": "United States"
    },
    "airportStops": [
      {
        "code": "MDW",
        "lat": 41.7875,
        "long": -87.7416,
        "name": "Chicago Midway International Airport",
        "city": "Chicago",
        "state": "Illinois",
        "country": "United States"
      }
    ],
    "ageInYears": 4,
    "flightPercentComplete": 26.45867345365912
  },
  {
    "callsign": "SWA1195",
    "altitude": 36025,
    "grounded": false,
    "speed": 452.4,
    "lat": 33.715365,
    "long": -90.372505,
    "heading": 303.1,
    "aircraftType": "B38M",
    "airportFrom": {
      "code": "MHT",
      "lat": 42.9293,
      "long": -71.4386,
      "name": "Manchester-Boston Regional Airport",
      "city": "Manchester",
      "state": "New Hampshire",
      "country": "United States"
    },
    "airportTo": {
      "code": "SMF",
      "lat": 38.683,
      "long": -121.591,
      "name": "Sacramento International Airport",
      "city": "Sacramento",
      "state": "California",
      "country": "United States"
    },
    "airportStops": [
      {
        "code": "BWI",
        "lat": 39.1841,
        "long": -76.6745,
        "name": "Baltimore-Washington International Thurgood Mars",
        "city": "Baltimore",
        "state": "Maryland",
        "country": "United States"
      },
      {
        "code": "RDU",
        "lat": 35.8729,
        "long": -78.7923,
        "name": "Durham International Airport",
        "city": "Raleigh/Durham",
        "state": "North Carolina",
        "country": "United States"
      },
      {
        "code": "LAS",
        "lat": 36.0806,
        "long": -115.143,
        "name": "Mccarran International Airport",
        "city": "Las Vegas",
        "state": "Nevada",
        "country": "United States"
      },
      {
        "code": "SAN",
        "lat": 32.7299,
        "long": -117.195,
        "name": "San Diego International Airport",
        "city": "San Diego",
        "state": "California",
        "country": "United States"
      }
    ],
    "ageInYears": 1,
    "flightPercentComplete": 32.11443892215675
  },
  {
    "callsign": "SWA818",
    "altitude": 36000,
    "grounded": false,
    "speed": 431.8,
    "lat": 31.798111,
    "long": -106.224228,
    "heading": 289.9,
    "aircraftType": "B738",
    "airportFrom": {
      "code": "EWR",
      "lat": 40.6924,
      "long": -74.1843,
      "name": "Newark International Airport",
      "city": "Newark",
      "state": "New Jersey",
      "country": "United States"
    },
    "airportTo": {
      "code": "MCI",
      "lat": 39.2992,
      "long": -94.7171,
      "name": "Kansas City International Airport",
      "city": "Kansas City",
      "state": "Missouri",
      "country": "United States"
    },
    "airportStops": [
      {
        "code": "STL",
        "lat": 38.7414,
        "long": -90.3647,
        "name": "Lambert St Louis International Airport",
        "city": "St. Louis",
        "state": "Missouri",
        "country": "United States"
      },
      {
        "code": "DAL",
        "lat": 32.8439,
        "long": -96.8496,
        "name": "Dallas Love Field Airport",
        "city": "Dallas",
        "state": "Texas",
        "country": "United States"
      },
      {
        "code": "AUS",
        "lat": 30.2027,
        "long": -97.6653,
        "name": "Austin-Bergstrom International Airport",
        "city": "Austin",
        "state": "Texas",
        "country": "United States"
      },
      {
        "code": "LAX",
        "lat": 33.9456,
        "long": -118.391,
        "name": "Los Angeles International Airport",
        "city": "Los Angeles",
        "state": "California",
        "country": "United States"
      },
      {
        "code": "SLC",
        "lat": 40.7862,
        "long": -111.982,
        "name": "Salt Lake City International Airport",
        "city": "Salt Lake City",
        "state": "Utah",
        "country": "United States"
      },
      {
        "code": "DEN",
        "lat": 39.8396,
        "long": -104.672,
        "name": "Denver International Airport",
        "city": "Denver",
        "state": "Colorado",
        "country": "United States"
      }
    ],
    "ageInYears": 2,
    "flightPercentComplete": 23.967247099862078
  },
  {
    "callsign": "SWA462",
    "altitude": 35425,
    "grounded": false,
    "speed": 452.5,
    "lat": 30.283447,
    "long": -82.505978,
    "heading": 169.6,
    "aircraftType": "B737",
    "airportFrom": {
      "code": "EWR",
      "lat": 40.6924,
      "long": -74.1843,
      "name": "Newark International Airport",
      "city": "Newark",
      "state": "New Jersey",
      "country": "United States"
    },
    "airportTo": {
      "code": "STL",
      "lat": 38.7414,
      "long": -90.3647,
      "name": "Lambert St Louis International Airport",
      "city": "St. Louis",
      "state": "Missouri",
      "country": "United States"
    },
    "ageInYears": 12,
    "flightPercentComplete": 15.397578081615993
  },
  {
    "callsign": "SWA2394",
    "altitude": 33025,
    "grounded": false,
    "speed": 456,
    "lat": 35.719021,
    "long": -86.391342,
    "heading": 150,
    "aircraftType": "B737",
    "airportFrom": {
      "code": "BDL",
      "lat": 41.9271,
      "long": -72.6816,
      "name": "Bradley International Airport",
      "city": "Windsor Locks",
      "state": "Connecticut",
      "country": "United States"
    },
    "airportTo": {
      "code": "RSW",
      "lat": 26.5228,
      "long": -81.7531,
      "name": "Southwest Florida International Airport",
      "city": "Fort Myers",
      "state": "Florida",
      "country": "United States"
    },
    "flightPercentComplete": 41.472639404119214
  },
  {
    "callsign": "SWA185",
    "altitude": 38000,
    "grounded": false,
    "speed": 451,
    "lat": 32.990082,
    "long": -79.945328,
    "heading": 219.2,
    "aircraftType": "B738",
    "airportFrom": {
      "code": "IND",
      "lat": 39.7322,
      "long": -86.2707,
      "name": "Indianapolis International Airport",
      "city": "Indianapolis",
      "state": "Indiana",
      "country": "United States"
    },
    "airportTo": {
      "code": "MCO",
      "lat": 28.4418,
      "long": -81.3115,
      "name": "Orlando International Airport",
      "city": "Orlando",
      "state": "Florida",
      "country": "United States"
    },
    "airportStops": [
      {
        "code": "BWI",
        "lat": 39.1841,
        "long": -76.6745,
        "name": "Baltimore-Washington International Thurgood Mars",
        "city": "Baltimore",
        "state": "Maryland",
        "country": "United States"
      },
      {
        "code": "BDL",
        "lat": 41.9271,
        "long": -72.6816,
        "name": "Bradley International Airport",
        "city": "Windsor Locks",
        "state": "Connecticut",
        "country": "United States"
      }
    ],
    "ageInYears": 6,
    "flightPercentComplete": 60.88397001909468
  },
  {
    "callsign": "SWA1111",
    "altitude": 28000,
    "grounded": false,
    "speed": 439.9,
    "lat": 39.584811,
    "long": -87.294434,
    "heading": 251.9,
    "aircraftType": "B738",
    "airportFrom": {
      "code": "OAK",
      "lat": 37.7158,
      "long": -122.209,
      "name": "Oakland International Airport",
      "city": "Oakland",
      "state": "California",
      "country": "United States"
    },
    "airportTo": {
      "code": "TPA",
      "lat": 27.9744,
      "long": -82.5356,
      "name": "Tampa International Airport",
      "city": "Tampa",
      "state": "Florida",
      "country": "United States"
    },
    "airportStops": [
      {
        "code": "LAX",
        "lat": 33.9456,
        "long": -118.391,
        "name": "Los Angeles International Airport",
        "city": "Los Angeles",
        "state": "California",
        "country": "United States"
      },
      {
        "code": "PHX",
        "lat": 33.4376,
        "long": -112.03,
        "name": "Sky Harbor International Airport",
        "city": "Phoenix",
        "state": "Arizona",
        "country": "United States"
      },
      {
        "code": "PHL",
        "lat": 39.8768,
        "long": -75.2419,
        "name": "Philadelphia International Airport",
        "city": "Philadelphia",
        "state": "Pennsylvania",
        "country": "United States"
      }
    ],
    "ageInYears": 3,
    "flightPercentComplete": 64.40406056094815
  },
  {
    "callsign": "SWA2245",
    "altitude": 1100,
    "grounded": false,
    "speed": 130.8,
    "lat": 41.747162,
    "long": -87.698684,
    "heading": 314.1,
    "aircraftType": "B737",
    "airportFrom": {
      "code": "BDL",
      "lat": 41.9271,
      "long": -72.6816,
      "name": "Bradley International Airport",
      "city": "Windsor Locks",
      "state": "Connecticut",
      "country": "United States"
    },
    "airportTo": {
      "code": "DEN",
      "lat": 39.8396,
      "long": -104.672,
      "name": "Denver International Airport",
      "city": "Denver",
      "state": "Colorado",
      "country": "United States"
    },
    "airportStops": [
      {
        "code": "MCO",
        "lat": 28.4418,
        "long": -81.3115,
        "name": "Orlando International Airport",
        "city": "Orlando",
        "state": "Florida",
        "country": "United States"
      }
    ],
    "ageInYears": 10,
    "flightPercentComplete": 46.26580080503358
  },
  {
    "callsign": "SWA2557",
    "altitude": 36000,
    "grounded": false,
    "speed": 463.3,
    "lat": 38.300993,
    "long": -101.018809,
    "heading": 268,
    "aircraftType": "B738",
    "airportFrom": {
      "code": "MCO",
      "lat": 28.4418,
      "long": -81.3115,
      "name": "Orlando International Airport",
      "city": "Orlando",
      "state": "Florida",
      "country": "United States"
    },
    "airportTo": {
      "code": "MDW",
      "lat": 41.7875,
      "long": -87.7416,
      "name": "Chicago Midway International Airport",
      "city": "Chicago",
      "state": "Illinois",
      "country": "United States"
    },
    "airportStops": [
      {
        "code": "ABQ",
        "lat": 35.0494,
        "long": -106.625,
        "name": "Albuquerque International Airport",
        "city": "Albuquerque",
        "state": "New Mexico",
        "country": "United States"
      },
      {
        "code": "SAN",
        "lat": 32.7299,
        "long": -117.195,
        "name": "San Diego International Airport",
        "city": "San Diego",
        "state": "California",
        "country": "United States"
      },
      {
        "code": "LAS",
        "lat": 36.0806,
        "long": -115.143,
        "name": "Mccarran International Airport",
        "city": "Las Vegas",
        "state": "Nevada",
        "country": "United States"
      }
    ],
    "ageInYears": 1,
    "flightPercentComplete": 25.12624825563026
  },
  {
    "callsign": "SWA302",
    "altitude": 36000,
    "grounded": false,
    "speed": 475,
    "lat": 40.836319,
    "long": -94.015442,
    "heading": 260,
    "aircraftType": "B738",
    "airportFrom": {
      "code": "TPA",
      "lat": 27.9744,
      "long": -82.5356,
      "name": "Tampa International Airport",
      "city": "Tampa",
      "state": "Florida",
      "country": "United States"
    },
    "airportTo": {
      "code": "MDW",
      "lat": 41.7875,
      "long": -87.7416,
      "name": "Chicago Midway International Airport",
      "city": "Chicago",
      "state": "Illinois",
      "country": "United States"
    },
    "airportStops": [
      {
        "code": "DEN",
        "lat": 39.8396,
        "long": -104.672,
        "name": "Denver International Airport",
        "city": "Denver",
        "state": "Colorado",
        "country": "United States"
      },
      {
        "code": "LAS",
        "lat": 36.0806,
        "long": -115.143,
        "name": "Mccarran International Airport",
        "city": "Las Vegas",
        "state": "Nevada",
        "country": "United States"
      },
      {
        "code": "SJC",
        "lat": 37.3679,
        "long": -121.926,
        "name": "Norman Y Mineta San Jose International Airport",
        "city": "San Jose",
        "state": "California",
        "country": "United States"
      },
      {
        "code": "BUR",
        "lat": 34.1963,
        "long": -118.352,
        "name": "Burbank Glendale Pasadena Airport",
        "city": "Burbank",
        "state": "California",
        "country": "United States"
      },
      {
        "code": "PHX",
        "lat": 33.4376,
        "long": -112.03,
        "name": "Sky Harbor International Airport",
        "city": "Phoenix",
        "state": "Arizona",
        "country": "United States"
      }
    ],
    "ageInYears": 3,
    "flightPercentComplete": 66.73965164418858
  },
  {
    "callsign": "SWA148",
    "altitude": 39000,
    "grounded": false,
    "speed": 467.6,
    "lat": 34.381993,
    "long": -83.80085,
    "heading": 66.6,
    "aircraftType": "B38M",
    "airportFrom": {
      "code": "HOU",
      "lat": 29.6572,
      "long": -95.2795,
      "name": "William P Hobby Airport",
      "city": "Houston",
      "state": "Texas",
      "country": "United States"
    },
    "airportTo": {
      "code": "BOS",
      "lat": 42.3717,
      "long": -71.0281,
      "name": "Gen E L Logan International Airport",
      "city": "Boston",
      "state": "Massachusetts",
      "country": "United States"
    },
    "airportStops": [
      {
        "code": "STL",
        "lat": 38.7414,
        "long": -90.3647,
        "name": "Lambert St Louis International Airport",
        "city": "St. Louis",
        "state": "Missouri",
        "country": "United States"
      }
    ],
    "ageInYears": 0,
    "flightPercentComplete": 44.997725255479835
  },
  {
    "callsign": "SWA2123",
    "altitude": 36000,
    "grounded": false,
    "speed": 431.5,
    "lat": 33.25177,
    "long": -110.551025,
    "heading": 261.7,
    "aircraftType": "B738",
    "airportFrom": {
      "code": "SLC",
      "lat": 40.7862,
      "long": -111.982,
      "name": "Salt Lake City International Airport",
      "city": "Salt Lake City",
      "state": "Utah",
      "country": "United States"
    },
    "airportTo": {
      "code": "LAX",
      "lat": 33.9456,
      "long": -118.391,
      "name": "Los Angeles International Airport",
      "city": "Los Angeles",
      "state": "California",
      "country": "United States"
    },
    "ageInYears": 1,
    "flightPercentComplete": 22.97154570233788
  },
  {
    "callsign": "SWA2259",
    "altitude": 36000,
    "grounded": false,
    "speed": 469.6,
    "lat": 37.362259,
    "long": -110.684392,
    "heading": 251.8,
    "aircraftType": "B738",
    "airportFrom": {
      "code": "HOU",
      "lat": 29.6572,
      "long": -95.2795,
      "name": "William P Hobby Airport",
      "city": "Houston",
      "state": "Texas",
      "country": "United States"
    },
    "airportTo": {
      "code": "SFO",
      "lat": 37.6148,
      "long": -122.392,
      "name": "San Francisco International Airport",
      "city": "San Francisco",
      "state": "California",
      "country": "United States"
    },
    "airportStops": [
      {
        "code": "DEN",
        "lat": 39.8396,
        "long": -104.672,
        "name": "Denver International Airport",
        "city": "Denver",
        "state": "Colorado",
        "country": "United States"
      },
      {
        "code": "LAX",
        "lat": 33.9456,
        "long": -118.391,
        "name": "Los Angeles International Airport",
        "city": "Los Angeles",
        "state": "California",
        "country": "United States"
      }
    ],
    "ageInYears": 3,
    "flightPercentComplete": 61.03216006657155
  },
  {
    "callsign": "SWA1766",
    "altitude": 36000,
    "grounded": false,
    "speed": 434.5,
    "lat": 33.475528,
    "long": -112.886315,
    "heading": 293.3,
    "aircraftType": "B737",
    "airportFrom": {
      "code": "BWI",
      "lat": 39.1841,
      "long": -76.6745,
      "name": "Baltimore-Washington International Thurgood Mars",
      "city": "Baltimore",
      "state": "Maryland",
      "country": "United States"
    },
    "airportTo": {
      "code": "DAL",
      "lat": 32.8439,
      "long": -96.8496,
      "name": "Dallas Love Field Airport",
      "city": "Dallas",
      "state": "Texas",
      "country": "United States"
    },
    "airportStops": [
      {
        "code": "RDU",
        "lat": 35.8729,
        "long": -78.7923,
        "name": "Durham International Airport",
        "city": "Raleigh/Durham",
        "state": "North Carolina",
        "country": "United States"
      },
      {
        "code": "MCO",
        "lat": 28.4418,
        "long": -81.3115,
        "name": "Orlando International Airport",
        "city": "Orlando",
        "state": "Florida",
        "country": "United States"
      },
      {
        "code": "PHL",
        "lat": 39.8768,
        "long": -75.2419,
        "name": "Philadelphia International Airport",
        "city": "Philadelphia",
        "state": "Pennsylvania",
        "country": "United States"
      },
      {
        "code": "MDW",
        "lat": 41.7875,
        "long": -87.7416,
        "name": "Chicago Midway International Airport",
        "city": "Chicago",
        "state": "Illinois",
        "country": "United States"
      },
      {
        "code": "LIT",
        "lat": 34.7278,
        "long": -92.219,
        "name": "Adams Field Airport",
        "city": "Little Rock",
        "state": "Arkansas",
        "country": "United States"
      }
    ],
    "flightPercentComplete": 23.100262369483758
  },
  {
    "callsign": "SWA2554",
    "altitude": 36000,
    "grounded": false,
    "speed": 445.6,
    "lat": 41.500203,
    "long": -90.300208,
    "heading": 261.7,
    "aircraftType": "B738",
    "airportFrom": {
      "code": "PHX",
      "lat": 33.4376,
      "long": -112.03,
      "name": "Sky Harbor International Airport",
      "city": "Phoenix",
      "state": "Arizona",
      "country": "United States"
    },
    "airportTo": {
      "code": "MCI",
      "lat": 39.2992,
      "long": -94.7171,
      "name": "Kansas City International Airport",
      "city": "Kansas City",
      "state": "Missouri",
      "country": "United States"
    },
    "airportStops": [
      {
        "code": "SAN",
        "lat": 32.7299,
        "long": -117.195,
        "name": "San Diego International Airport",
        "city": "San Diego",
        "state": "California",
        "country": "United States"
      },
      {
        "code": "SMF",
        "lat": 38.683,
        "long": -121.591,
        "name": "Sacramento International Airport",
        "city": "Sacramento",
        "state": "California",
        "country": "United States"
      },
      {
        "code": "SEA",
        "lat": 47.4405,
        "long": -122.296,
        "name": "Tacoma International Airport",
        "city": "Seattle",
        "state": "Washington",
        "country": "United States"
      }
    ],
    "ageInYears": 5,
    "flightPercentComplete": 73.36843627104098
  },
  {
    "callsign": "SWA498",
    "altitude": 39000,
    "grounded": false,
    "speed": 501.4,
    "lat": 38.040024,
    "long": -80.389593,
    "heading": 66,
    "aircraftType": "B738",
    "airportFrom": {
      "code": "BOS",
      "lat": 42.3717,
      "long": -71.0281,
      "name": "Gen E L Logan International Airport",
      "city": "Boston",
      "state": "Massachusetts",
      "country": "United States"
    },
    "airportTo": {
      "code": "MDW",
      "lat": 41.7875,
      "long": -87.7416,
      "name": "Chicago Midway International Airport",
      "city": "Chicago",
      "state": "Illinois",
      "country": "United States"
    },
    "flightPercentComplete": 45.42353997594205
  },
  {
    "callsign": "SWA743",
    "altitude": 36000,
    "grounded": false,
    "speed": 453,
    "lat": 32.319682,
    "long": -88.908598,
    "heading": 229,
    "aircraftType": "B738",
    "airportFrom": {
      "code": "CRP",
      "lat": 27.7747,
      "long": -97.5019,
      "name": "Corpus Christi International Airport",
      "city": "Corpus Christi",
      "state": "Texas",
      "country": "United States"
    },
    "airportTo": {
      "code": "IND",
      "lat": 39.7322,
      "long": -86.2707,
      "name": "Indianapolis International Airport",
      "city": "Indianapolis",
      "state": "Indiana",
      "country": "United States"
    },
    "airportStops": [
      {
        "code": "HOU",
        "lat": 29.6572,
        "long": -95.2795,
        "name": "William P Hobby Airport",
        "city": "Houston",
        "state": "Texas",
        "country": "United States"
      },
      {
        "code": "JAN",
        "lat": 32.3089,
        "long": -90.0733,
        "name": "Jackson International Airport",
        "city": "Pearl",
        "state": "Mississippi",
        "country": "United States"
      },
      {
        "code": "BWI",
        "lat": 39.1841,
        "long": -76.6745,
        "name": "Baltimore-Washington International Thurgood Mars",
        "city": "Baltimore",
        "state": "Maryland",
        "country": "United States"
      }
    ],
    "ageInYears": 4,
    "flightPercentComplete": 49.074524982322096
  },
  {
    "callsign": "SWA1318",
    "altitude": 1100,
    "grounded": false,
    "speed": 135.8,
    "lat": 41.762571,
    "long": -87.720273,
    "heading": 313.8,
    "aircraftType": "B738",
    "airportFrom": {
      "code": "TPA",
      "lat": 27.9744,
      "long": -82.5356,
      "name": "Tampa International Airport",
      "city": "Tampa",
      "state": "Florida",
      "country": "United States"
    },
    "airportTo": {
      "code": "MHT",
      "lat": 42.9293,
      "long": -71.4386,
      "name": "Manchester-Boston Regional Airport",
      "city": "Manchester",
      "state": "New Hampshire",
      "country": "United States"
    },
    "airportStops": [
      {
        "code": "BWI",
        "lat": 39.1841,
        "long": -76.6745,
        "name": "Baltimore-Washington International Thurgood Mars",
        "city": "Baltimore",
        "state": "Maryland",
        "country": "United States"
      }
    ],
    "flightPercentComplete": 30.779940476801503
  },
  {
    "callsign": "SWA2379",
    "altitude": 28300,
    "grounded": false,
    "speed": 438.6,
    "lat": 34.932999,
    "long": -94.183157,
    "heading": 246.8,
    "aircraftType": "B38M",
    "airportFrom": {
      "code": "EWR",
      "lat": 40.6924,
      "long": -74.1843,
      "name": "Newark International Airport",
      "city": "Newark",
      "state": "New Jersey",
      "country": "United States"
    },
    "airportTo": {
      "code": "RNO",
      "lat": 39.5064,
      "long": -119.776,
      "name": "Reno-Tahoe International Airport",
      "city": "Reno",
      "state": "Nevada",
      "country": "United States"
    },
    "airportStops": [
      {
        "code": "BWI",
        "lat": 39.1841,
        "long": -76.6745,
        "name": "Baltimore-Washington International Thurgood Mars",
        "city": "Baltimore",
        "state": "Maryland",
        "country": "United States"
      },
      {
        "code": "LAX",
        "lat": 33.9456,
        "long": -118.391,
        "name": "Los Angeles International Airport",
        "city": "Los Angeles",
        "state": "California",
        "country": "United States"
      }
    ],
    "ageInYears": 1,
    "flightPercentComplete": 39.67370551018814
  },
  {
    "callsign": "SWA420",
    "altitude": 35600,
    "grounded": false,
    "speed": 427.4,
    "lat": 35.47879,
    "long": -93.616848,
    "heading": 232.7,
    "aircraftType": "B738",
    "airportFrom": {
      "code": "MDW",
      "lat": 41.7875,
      "long": -87.7416,
      "name": "Chicago Midway International Airport",
      "city": "Chicago",
      "state": "Illinois",
      "country": "United States"
    },
    "airportTo": {
      "code": "SAN",
      "lat": 32.7299,
      "long": -117.195,
      "name": "San Diego International Airport",
      "city": "San Diego",
      "state": "California",
      "country": "United States"
    },
    "airportStops": [
      {
        "code": "ATL",
        "lat": 33.6558,
        "long": -84.4333,
        "name": "Hartsfield-Jackson Atlanta International Airport",
        "city": "Atlanta",
        "state": "Georgia",
        "country": "United States"
      },
      {
        "code": "AUS",
        "lat": 30.2027,
        "long": -97.6653,
        "name": "Austin-Bergstrom International Airport",
        "city": "Austin",
        "state": "Texas",
        "country": "United States"
      },
      {
        "code": "DEN",
        "lat": 39.8396,
        "long": -104.672,
        "name": "Denver International Airport",
        "city": "Denver",
        "state": "Colorado",
        "country": "United States"
      }
    ],
    "ageInYears": 1,
    "flightPercentComplete": 21.2616907443824
  },
  {
    "callsign": "SWA4670",
    "altitude": 2625,
    "grounded": false,
    "speed": 215,
    "lat": 26.07811,
    "long": -80.392508,
    "heading": 90.5,
    "aircraftType": "B738",
    "airportFrom": {
      "code": "SEA",
      "lat": 47.4405,
      "long": -122.296,
      "name": "Tacoma International Airport",
      "city": "Seattle",
      "state": "Washington",
      "country": "United States"
    },
    "airportTo": {
      "code": "BOS",
      "lat": 42.3717,
      "long": -71.0281,
      "name": "Gen E L Logan International Airport",
      "city": "Boston",
      "state": "Massachusetts",
      "country": "United States"
    },
    "airportStops": [
      {
        "code": "STL",
        "lat": 38.7414,
        "long": -90.3647,
        "name": "Lambert St Louis International Airport",
        "city": "St. Louis",
        "state": "Missouri",
        "country": "United States"
      }
    ],
    "ageInYears": 2,
    "flightPercentComplete": 49.96338985017673
  },
  {
    "callsign": "SWA1367",
    "altitude": 36000,
    "grounded": false,
    "speed": 439.9,
    "lat": 34.848586,
    "long": -109.67823,
    "heading": 226.4,
    "aircraftType": "B738",
    "airportFrom": {
      "code": "SFO",
      "lat": 37.6148,
      "long": -122.392,
      "name": "San Francisco International Airport",
      "city": "San Francisco",
      "state": "California",
      "country": "United States"
    },
    "airportTo": {
      "code": "ISP",
      "lat": 40.7891,
      "long": -73.0984,
      "name": "Long Island Macarthur Airport",
      "city": "Ronkonkoma",
      "state": "New York",
      "country": "United States"
    },
    "airportStops": [
      {
        "code": "MDW",
        "lat": 41.7875,
        "long": -87.7416,
        "name": "Chicago Midway International Airport",
        "city": "Chicago",
        "state": "Illinois",
        "country": "United States"
      }
    ],
    "flightPercentComplete": 22.59568813496444
  },
  {
    "callsign": "SWA848",
    "altitude": 24525,
    "grounded": false,
    "speed": 440.8,
    "lat": 37.586603,
    "long": -77.519472,
    "heading": 23,
    "aircraftType": "B738",
    "airportFrom": {
      "code": "BDL",
      "lat": 41.9271,
      "long": -72.6816,
      "name": "Bradley International Airport",
      "city": "Windsor Locks",
      "state": "Connecticut",
      "country": "United States"
    },
    "airportTo": {
      "code": "BWI",
      "lat": 39.1841,
      "long": -76.6745,
      "name": "Baltimore-Washington International Thurgood Mars",
      "city": "Baltimore",
      "state": "Maryland",
      "country": "United States"
    },
    "ageInYears": 2,
    "flightPercentComplete": 57.708042556602976
  },
  {
    "callsign": "SWA310",
    "altitude": 16775,
    "grounded": false,
    "speed": 378,
    "lat": 26.874344,
    "long": -79.644453,
    "heading": 169.8,
    "aircraftType": "B738",
    "airportFrom": {
      "code": "FLL",
      "lat": 26.0722,
      "long": -80.1354,
      "name": "Fort Lauderdale Hollywood International Airport",
      "city": "Dania Beach",
      "state": "Florida",
      "country": "United States"
    },
    "airportTo": {
      "code": "BWI",
      "lat": 39.1841,
      "long": -76.6745,
      "name": "Baltimore-Washington International Thurgood Mars",
      "city": "Baltimore",
      "state": "Maryland",
      "country": "United States"
    },
    "airportStops": [
      {
        "code": "BNA",
        "lat": 36.1342,
        "long": -86.6682,
        "name": "Nashville International Airport",
        "city": "Nashville",
        "state": "Tennessee",
        "country": "United States"
      },
      {
        "code": "SAN",
        "lat": 32.7299,
        "long": -117.195,
        "name": "San Diego International Airport",
        "city": "San Diego",
        "state": "California",
        "country": "United States"
      },
      {
        "code": "LAS",
        "lat": 36.0806,
        "long": -115.143,
        "name": "Mccarran International Airport",
        "city": "Las Vegas",
        "state": "Nevada",
        "country": "United States"
      }
    ],
    "ageInYears": 5,
    "flightPercentComplete": 6.49315482325542
  },
  {
    "callsign": "SWA1109",
    "altitude": 1600,
    "grounded": false,
    "speed": 126,
    "lat": 33.631943,
    "long": -84.371414,
    "heading": 270,
    "aircraftType": "B737",
    "airportFrom": {
      "code": "BWI",
      "lat": 39.1841,
      "long": -76.6745,
      "name": "Baltimore-Washington International Thurgood Mars",
      "city": "Baltimore",
      "state": "Maryland",
      "country": "United States"
    },
    "airportTo": {
      "code": "SEA",
      "lat": 47.4405,
      "long": -122.296,
      "name": "Tacoma International Airport",
      "city": "Seattle",
      "state": "Washington",
      "country": "United States"
    },
    "airportStops": [
      {
        "code": "ABQ",
        "lat": 35.0494,
        "long": -106.625,
        "name": "Albuquerque International Airport",
        "city": "Albuquerque",
        "state": "New Mexico",
        "country": "United States"
      },
      {
        "code": "PHX",
        "lat": 33.4376,
        "long": -112.03,
        "name": "Sky Harbor International Airport",
        "city": "Phoenix",
        "state": "Arizona",
        "country": "United States"
      }
    ],
    "ageInYears": 11,
    "flightPercentComplete": 6.35176549707891
  },
  {
    "callsign": "SWA263",
    "altitude": 35975,
    "grounded": false,
    "speed": 432.7,
    "lat": 42.461746,
    "long": -89.443567,
    "heading": 263.6,
    "aircraftType": "B738",
    "airportFrom": {
      "code": "TUS",
      "lat": 32.1204,
      "long": -110.936,
      "name": "Tucson International Airport",
      "city": "Tucson",
      "state": "Arizona",
      "country": "United States"
    },
    "airportTo": {
      "code": "PIT",
      "lat": 40.4914,
      "long": -80.2328,
      "name": "Pittsburgh International Airport",
      "city": "Coraopolis",
      "state": "Pennsylvania",
      "country": "United States"
    },
    "airportStops": [
      {
        "code": "SAN",
        "lat": 32.7299,
        "long": -117.195,
        "name": "San Diego International Airport",
        "city": "San Diego",
        "state": "California",
        "country": "United States"
      },
      {
        "code": "ABQ",
        "lat": 35.0494,
        "long": -106.625,
        "name": "Albuquerque International Airport",
        "city": "Albuquerque",
        "state": "New Mexico",
        "country": "United States"
      },
      {
        "code": "MDW",
        "lat": 41.7875,
        "long": -87.7416,
        "name": "Chicago Midway International Airport",
        "city": "Chicago",
        "state": "Illinois",
        "country": "United States"
      }
    ],
    "flightPercentComplete": 72.37663057201641
  },
  {
    "callsign": "SWA1218",
    "altitude": 38000,
    "grounded": false,
    "speed": 421.8,
    "lat": 37.361115,
    "long": -97.324375,
    "heading": 283,
    "aircraftType": "B738",
    "airportFrom": {
      "code": "MCO",
      "lat": 28.4418,
      "long": -81.3115,
      "name": "Orlando International Airport",
      "city": "Orlando",
      "state": "Florida",
      "country": "United States"
    },
    "airportTo": {
      "code": "DEN",
      "lat": 39.8396,
      "long": -104.672,
      "name": "Denver International Airport",
      "city": "Denver",
      "state": "Colorado",
      "country": "United States"
    },
    "airportStops": [
      {
        "code": "MDW",
        "lat": 41.7875,
        "long": -87.7416,
        "name": "Chicago Midway International Airport",
        "city": "Chicago",
        "state": "Illinois",
        "country": "United States"
      }
    ],
    "ageInYears": 3,
    "flightPercentComplete": 72.01742608285988
  },
  {
    "callsign": "SWA2392",
    "altitude": 1100,
    "grounded": false,
    "speed": 133.7,
    "lat": 41.747635,
    "long": -87.699051,
    "heading": 314.1,
    "aircraftType": "B738",
    "airportFrom": {
      "code": "BWI",
      "lat": 39.1841,
      "long": -76.6745,
      "name": "Baltimore-Washington International Thurgood Mars",
      "city": "Baltimore",
      "state": "Maryland",
      "country": "United States"
    },
    "airportTo": {
      "code": "SFO",
      "lat": 37.6148,
      "long": -122.392,
      "name": "San Francisco International Airport",
      "city": "San Francisco",
      "state": "California",
      "country": "United States"
    },
    "airportStops": [
      {
        "code": "STL",
        "lat": 38.7414,
        "long": -90.3647,
        "name": "Lambert St Louis International Airport",
        "city": "St. Louis",
        "state": "Missouri",
        "country": "United States"
      },
      {
        "code": "DAL",
        "lat": 32.8439,
        "long": -96.8496,
        "name": "Dallas Love Field Airport",
        "city": "Dallas",
        "state": "Texas",
        "country": "United States"
      },
      {
        "code": "DCA",
        "lat": 38.849,
        "long": -77.0438,
        "name": "Washington National Airport",
        "city": "Arlington",
        "state": "Virginia",
        "country": "United States"
      },
      {
        "code": "MKE",
        "lat": 42.9471,
        "long": -87.9051,
        "name": "General Mitchell International Airport",
        "city": "Milwaukee",
        "state": "Wisconsin",
        "country": "United States"
      },
      {
        "code": "LAS",
        "lat": 36.0806,
        "long": -115.143,
        "name": "Mccarran International Airport",
        "city": "Las Vegas",
        "state": "Nevada",
        "country": "United States"
      }
    ],
    "ageInYears": 5,
    "flightPercentComplete": 24.372335550824797
  },
  {
    "callsign": "SWA1149",
    "altitude": 7350,
    "grounded": false,
    "speed": 194,
    "lat": 33.525421,
    "long": -112.08477,
    "heading": 263.8,
    "aircraftType": "B738",
    "airportFrom": {
      "code": "SMF",
      "lat": 38.683,
      "long": -121.591,
      "name": "Sacramento International Airport",
      "city": "Sacramento",
      "state": "California",
      "country": "United States"
    },
    "airportTo": {
      "code": "MSP",
      "lat": 44.8793,
      "long": -93.1987,
      "name": "Minneapolis St Paul International Airport",
      "city": "St. Paul",
      "state": "Minnesota",
      "country": "United States"
    },
    "airportStops": [
      {
        "code": "BUR",
        "lat": 34.1963,
        "long": -118.352,
        "name": "Burbank Glendale Pasadena Airport",
        "city": "Burbank",
        "state": "California",
        "country": "United States"
      },
      {
        "code": "PHX",
        "lat": 33.4376,
        "long": -112.03,
        "name": "Sky Harbor International Airport",
        "city": "Phoenix",
        "state": "Arizona",
        "country": "United States"
      }
    ],
    "flightPercentComplete": 15.902969914591392
  },
  {
    "callsign": "SWA2326",
    "altitude": 36000,
    "grounded": false,
    "speed": 460.7,
    "lat": 39.874832,
    "long": -102.245994,
    "heading": 260.3,
    "aircraftType": "B738",
    "airportFrom": {
      "code": "OAK",
      "lat": 37.7158,
      "long": -122.209,
      "name": "Oakland International Airport",
      "city": "Oakland",
      "state": "California",
      "country": "United States"
    },
    "airportTo": {
      "code": "STL",
      "lat": 38.7414,
      "long": -90.3647,
      "name": "Lambert St Louis International Airport",
      "city": "St. Louis",
      "state": "Missouri",
      "country": "United States"
    },
    "airportStops": [
      {
        "code": "SEA",
        "lat": 47.4405,
        "long": -122.296,
        "name": "Tacoma International Airport",
        "city": "Seattle",
        "state": "Washington",
        "country": "United States"
      }
    ],
    "ageInYears": 0,
    "flightPercentComplete": 62.843140179804145
  },
  {
    "callsign": "SWA1658",
    "altitude": 11175,
    "grounded": false,
    "speed": 360.5,
    "lat": 38.971069,
    "long": -76.576021,
    "heading": 138.3,
    "aircraftType": "B737",
    "airportFrom": {
      "code": "MCO",
      "lat": 28.4418,
      "long": -81.3115,
      "name": "Orlando International Airport",
      "city": "Orlando",
      "state": "Florida",
      "country": "United States"
    },
    "airportTo": {
      "code": "PWM",
      "lat": 43.6475,
      "long": -70.3103,
      "name": "Jetport International Airport",
      "city": "Portland",
      "state": "Maine",
      "country": "United States"
    },
    "airportStops": [
      {
        "code": "BWI",
        "lat": 39.1841,
        "long": -76.6745,
        "name": "Baltimore-Washington International Thurgood Mars",
        "city": "Baltimore",
        "state": "Maryland",
        "country": "United States"
      }
    ],
    "ageInYears": 11,
    "flightPercentComplete": 62.280301723842214
  },
  {
    "callsign": "SWA2435",
    "altitude": 34000,
    "grounded": false,
    "speed": 473.1,
    "lat": 37.553467,
    "long": -110.777133,
    "heading": 250.9,
    "aircraftType": "B738",
    "airportFrom": {
      "code": "SEA",
      "lat": 47.4405,
      "long": -122.296,
      "name": "Tacoma International Airport",
      "city": "Seattle",
      "state": "Washington",
      "country": "United States"
    },
    "airportTo": {
      "code": "MSP",
      "lat": 44.8793,
      "long": -93.1987,
      "name": "Minneapolis St Paul International Airport",
      "city": "St. Paul",
      "state": "Minnesota",
      "country": "United States"
    },
    "airportStops": [
      {
        "code": "PHX",
        "lat": 33.4376,
        "long": -112.03,
        "name": "Sky Harbor International Airport",
        "city": "Phoenix",
        "state": "Arizona",
        "country": "United States"
      }
    ],
    "ageInYears": 1,
    "flightPercentComplete": 25.37798730357884
  },
  {
    "callsign": "SWA1682",
    "altitude": 1300,
    "grounded": false,
    "speed": 213.8,
    "lat": 26.077194,
    "long": -80.27513,
    "heading": 124.1,
    "aircraftType": "B737",
    "airportFrom": {
      "code": "MSY",
      "lat": 29.983,
      "long": -90.2569,
      "name": "New Orleans International Airport",
      "city": "Kenner",
      "state": "Louisiana",
      "country": "United States"
    },
    "airportTo": {
      "code": "BDL",
      "lat": 41.9271,
      "long": -72.6816,
      "name": "Bradley International Airport",
      "city": "Windsor Locks",
      "state": "Connecticut",
      "country": "United States"
    },
    "airportStops": [
      {
        "code": "FLL",
        "lat": 26.0722,
        "long": -80.1354,
        "name": "Fort Lauderdale Hollywood International Airport",
        "city": "Dania Beach",
        "state": "Florida",
        "country": "United States"
      }
    ],
    "flightPercentComplete": 7.962189154817779
  },
  {
    "callsign": "SWA2306",
    "altitude": 35975,
    "grounded": false,
    "speed": 481.8,
    "lat": 38.885147,
    "long": -98.232342,
    "heading": 265,
    "aircraftType": "B738",
    "airportFrom": {
      "code": "ISP",
      "lat": 40.7891,
      "long": -73.0984,
      "name": "Long Island Macarthur Airport",
      "city": "Ronkonkoma",
      "state": "New York",
      "country": "United States"
    },
    "airportTo": {
      "code": "MKE",
      "lat": 42.9471,
      "long": -87.9051,
      "name": "General Mitchell International Airport",
      "city": "Milwaukee",
      "state": "Wisconsin",
      "country": "United States"
    },
    "airportStops": [
      {
        "code": "BWI",
        "lat": 39.1841,
        "long": -76.6745,
        "name": "Baltimore-Washington International Thurgood Mars",
        "city": "Baltimore",
        "state": "Maryland",
        "country": "United States"
      },
      {
        "code": "MCO",
        "lat": 28.4418,
        "long": -81.3115,
        "name": "Orlando International Airport",
        "city": "Orlando",
        "state": "Florida",
        "country": "United States"
      }
    ],
    "ageInYears": 1,
    "flightPercentComplete": 21.665032088118753
  },
  {
    "callsign": "SWA769",
    "altitude": 375,
    "grounded": false,
    "speed": 146.6,
    "lat": 39.146847,
    "long": -76.645996,
    "heading": 323.6,
    "aircraftType": "B738",
    "airportFrom": {
      "code": "MCO",
      "lat": 28.4418,
      "long": -81.3115,
      "name": "Orlando International Airport",
      "city": "Orlando",
      "state": "Florida",
      "country": "United States"
    },
    "airportTo": {
      "code": "PVD",
      "lat": 41.723,
      "long": -71.4399,
      "name": "Theodore Francis Green State Airport",
      "city": "Warwick",
      "state": "Rhode Island",
      "country": "United States"
    },
    "ageInYears": 4,
    "flightPercentComplete": 69.55515629825449
  },
  {
    "callsign": "SWA1544",
    "altitude": 30500,
    "grounded": false,
    "speed": 433.6,
    "lat": 36.607681,
    "long": -87.927704,
    "heading": 281.4,
    "aircraftType": "B737",
    "airportFrom": {
      "code": "PHX",
      "lat": 33.4376,
      "long": -112.03,
      "name": "Sky Harbor International Airport",
      "city": "Phoenix",
      "state": "Arizona",
      "country": "United States"
    },
    "airportTo": {
      "code": "MCO",
      "lat": 28.4418,
      "long": -81.3115,
      "name": "Orlando International Airport",
      "city": "Orlando",
      "state": "Florida",
      "country": "United States"
    },
    "airportStops": [
      {
        "code": "OAK",
        "lat": 37.7158,
        "long": -122.209,
        "name": "Oakland International Airport",
        "city": "Oakland",
        "state": "California",
        "country": "United States"
      },
      {
        "code": "STL",
        "lat": 38.7414,
        "long": -90.3647,
        "name": "Lambert St Louis International Airport",
        "city": "St. Louis",
        "state": "Missouri",
        "country": "United States"
      }
    ],
    "flightPercentComplete": 63.00729044608524
  },
  {
    "callsign": "SWA679",
    "altitude": 34000,
    "grounded": false,
    "speed": 436.6,
    "lat": 34.988663,
    "long": -109.113128,
    "heading": 236,
    "aircraftType": "B738",
    "airportFrom": {
      "code": "FLL",
      "lat": 26.0722,
      "long": -80.1354,
      "name": "Fort Lauderdale Hollywood International Airport",
      "city": "Dania Beach",
      "state": "Florida",
      "country": "United States"
    },
    "airportTo": {
      "code": "PHX",
      "lat": 33.4376,
      "long": -112.03,
      "name": "Sky Harbor International Airport",
      "city": "Phoenix",
      "state": "Arizona",
      "country": "United States"
    },
    "airportStops": [
      {
        "code": "BWI",
        "lat": 39.1841,
        "long": -76.6745,
        "name": "Baltimore-Washington International Thurgood Mars",
        "city": "Baltimore",
        "state": "Maryland",
        "country": "United States"
      }
    ],
    "ageInYears": 0,
    "flightPercentComplete": 89.94846959823116
  },
  {
    "callsign": "SWA1183",
    "altitude": 1475,
    "grounded": false,
    "speed": 131.6,
    "lat": 41.742274,
    "long": -87.691913,
    "heading": 313.2,
    "aircraftType": "B738",
    "airportFrom": {
      "code": "BOS",
      "lat": 42.3717,
      "long": -71.0281,
      "name": "Gen E L Logan International Airport",
      "city": "Boston",
      "state": "Massachusetts",
      "country": "United States"
    },
    "airportTo": {
      "code": "OAK",
      "lat": 37.7158,
      "long": -122.209,
      "name": "Oakland International Airport",
      "city": "Oakland",
      "state": "California",
      "country": "United States"
    },
    "airportStops": [
      {
        "code": "BWI",
        "lat": 39.1841,
        "long": -76.6745,
        "name": "Baltimore-Washington International Thurgood Mars",
        "city": "Baltimore",
        "state": "Maryland",
        "country": "United States"
      },
      {
        "code": "STL",
        "lat": 38.7414,
        "long": -90.3647,
        "name": "Lambert St Louis International Airport",
        "city": "St. Louis",
        "state": "Missouri",
        "country": "United States"
      },
      {
        "code": "LAS",
        "lat": 36.0806,
        "long": -115.143,
        "name": "Mccarran International Airport",
        "city": "Las Vegas",
        "state": "Nevada",
        "country": "United States"
      }
    ],
    "ageInYears": 4,
    "flightPercentComplete": 31.382760445919942
  },
  {
    "callsign": "SWA2381",
    "altitude": 1100,
    "grounded": false,
    "speed": 135.8,
    "lat": 41.762245,
    "long": -87.719826,
    "heading": 313.8,
    "aircraftType": "B738",
    "airportFrom": {
      "code": "SJC",
      "lat": 37.3679,
      "long": -121.926,
      "name": "Norman Y Mineta San Jose International Airport",
      "city": "San Jose",
      "state": "California",
      "country": "United States"
    },
    "airportTo": {
      "code": "TPA",
      "lat": 27.9744,
      "long": -82.5356,
      "name": "Tampa International Airport",
      "city": "Tampa",
      "state": "Florida",
      "country": "United States"
    },
    "airportStops": [
      {
        "code": "LAS",
        "lat": 36.0806,
        "long": -115.143,
        "name": "Mccarran International Airport",
        "city": "Las Vegas",
        "state": "Nevada",
        "country": "United States"
      },
      {
        "code": "PHX",
        "lat": 33.4376,
        "long": -112.03,
        "name": "Sky Harbor International Airport",
        "city": "Phoenix",
        "state": "Arizona",
        "country": "United States"
      },
      {
        "code": "TUL",
        "lat": 36.1877,
        "long": -95.8892,
        "name": "Tulsa International Airport",
        "city": "Tulsa",
        "state": "Oklahoma",
        "country": "United States"
      },
      {
        "code": "STL",
        "lat": 38.7414,
        "long": -90.3647,
        "name": "Lambert St Louis International Airport",
        "city": "St. Louis",
        "state": "Missouri",
        "country": "United States"
      }
    ],
    "ageInYears": 6,
    "flightPercentComplete": 57.82353711085272
  },
  {
    "callsign": "SWA2425",
    "altitude": 37000,
    "grounded": false,
    "speed": 466.6,
    "lat": 36.422517,
    "long": -76.626425,
    "heading": 36.1,
    "aircraftType": "B737",
    "airportFrom": {
      "code": "GEG",
      "lat": 47.625,
      "long": -117.538,
      "name": "Spokane International Airport",
      "city": "Spokane",
      "state": "Washington",
      "country": "United States"
    },
    "airportTo": {
      "code": "DAL",
      "lat": 32.8439,
      "long": -96.8496,
      "name": "Dallas Love Field Airport",
      "city": "Dallas",
      "state": "Texas",
      "country": "United States"
    },
    "airportStops": [
      {
        "code": "BOI",
        "lat": 43.5709,
        "long": -116.222,
        "name": "Boise Air Terminal",
        "city": "Boise",
        "state": "Idaho",
        "country": "United States"
      },
      {
        "code": "OAK",
        "lat": 37.7158,
        "long": -122.209,
        "name": "Oakland International Airport",
        "city": "Oakland",
        "state": "California",
        "country": "United States"
      },
      {
        "code": "ONT",
        "lat": 34.062,
        "long": -117.594,
        "name": "Ontario International Airport",
        "city": "Ontario",
        "state": "California",
        "country": "United States"
      },
      {
        "code": "LAS",
        "lat": 36.0806,
        "long": -115.143,
        "name": "Mccarran International Airport",
        "city": "Las Vegas",
        "state": "Nevada",
        "country": "United States"
      },
      {
        "code": "DEN",
        "lat": 39.8396,
        "long": -104.672,
        "name": "Denver International Airport",
        "city": "Denver",
        "state": "Colorado",
        "country": "United States"
      },
      {
        "code": "TUL",
        "lat": 36.1877,
        "long": -95.8892,
        "name": "Tulsa International Airport",
        "city": "Tulsa",
        "state": "Oklahoma",
        "country": "United States"
      }
    ],
    "ageInYears": 13,
    "flightPercentComplete": 21.00773463927057
  },
  {
    "callsign": "SWA1502",
    "altitude": 42600,
    "grounded": false,
    "speed": 432.8,
    "lat": 41.73869,
    "long": -90.763486,
    "heading": 261.5,
    "aircraftType": "B737",
    "airportFrom": {
      "code": "SEA",
      "lat": 47.4405,
      "long": -122.296,
      "name": "Tacoma International Airport",
      "city": "Seattle",
      "state": "Washington",
      "country": "United States"
    },
    "airportTo": {
      "code": "BWI",
      "lat": 39.1841,
      "long": -76.6745,
      "name": "Baltimore-Washington International Thurgood Mars",
      "city": "Baltimore",
      "state": "Maryland",
      "country": "United States"
    },
    "airportStops": [
      {
        "code": "DEN",
        "lat": 39.8396,
        "long": -104.672,
        "name": "Denver International Airport",
        "city": "Denver",
        "state": "Colorado",
        "country": "United States"
      },
      {
        "code": "STL",
        "lat": 38.7414,
        "long": -90.3647,
        "name": "Lambert St Louis International Airport",
        "city": "St. Louis",
        "state": "Missouri",
        "country": "United States"
      }
    ],
    "ageInYears": 13,
    "flightPercentComplete": 67.33295489620656
  },
  {
    "callsign": "SWA142",
    "altitude": 20875,
    "grounded": false,
    "speed": 411,
    "lat": 40.897522,
    "long": -75.274658,
    "heading": 253.1,
    "aircraftType": "B738",
    "airportFrom": {
      "code": "BOS",
      "lat": 42.3717,
      "long": -71.0281,
      "name": "Gen E L Logan International Airport",
      "city": "Boston",
      "state": "Massachusetts",
      "country": "United States"
    },
    "airportTo": {
      "code": "MKE",
      "lat": 42.9471,
      "long": -87.9051,
      "name": "General Mitchell International Airport",
      "city": "Milwaukee",
      "state": "Wisconsin",
      "country": "United States"
    },
    "flightPercentComplete": 22.534581286248578
  },
  {
    "callsign": "SWA2235",
    "altitude": 34000,
    "grounded": false,
    "speed": 430.9,
    "lat": 37.37439,
    "long": -80.204812,
    "heading": 237.9,
    "aircraftType": "B738",
    "airportFrom": {
      "code": "MDW",
      "lat": 41.7875,
      "long": -87.7416,
      "name": "Chicago Midway International Airport",
      "city": "Chicago",
      "state": "Illinois",
      "country": "United States"
    },
    "airportTo": {
      "code": "MCO",
      "lat": 28.4418,
      "long": -81.3115,
      "name": "Orlando International Airport",
      "city": "Orlando",
      "state": "Florida",
      "country": "United States"
    },
    "airportStops": [
      {
        "code": "BWI",
        "lat": 39.1841,
        "long": -76.6745,
        "name": "Baltimore-Washington International Thurgood Mars",
        "city": "Baltimore",
        "state": "Maryland",
        "country": "United States"
      },
      {
        "code": "BDL",
        "lat": 41.9271,
        "long": -72.6816,
        "name": "Bradley International Airport",
        "city": "Windsor Locks",
        "state": "Connecticut",
        "country": "United States"
      }
    ],
    "ageInYears": 3,
    "flightPercentComplete": 37.34613899352954
  },
  {
    "callsign": "SWA1088",
    "altitude": 19500,
    "grounded": false,
    "speed": 473,
    "lat": 36.270081,
    "long": -113.585876,
    "heading": 82,
    "aircraftType": "B737",
    "airportFrom": {
      "code": "MCO",
      "lat": 28.4418,
      "long": -81.3115,
      "name": "Orlando International Airport",
      "city": "Orlando",
      "state": "Florida",
      "country": "United States"
    },
    "airportTo": {
      "code": "OKC",
      "lat": 35.3981,
      "long": -97.5974,
      "name": "Will Rogers World Airport",
      "city": "Oklahoma City",
      "state": "Oklahoma",
      "country": "United States"
    },
    "airportStops": [
      {
        "code": "PIT",
        "lat": 40.4914,
        "long": -80.2328,
        "name": "Pittsburgh International Airport",
        "city": "Coraopolis",
        "state": "Pennsylvania",
        "country": "United States"
      },
      {
        "code": "BWI",
        "lat": 39.1841,
        "long": -76.6745,
        "name": "Baltimore-Washington International Thurgood Mars",
        "city": "Baltimore",
        "state": "Maryland",
        "country": "United States"
      },
      {
        "code": "PBI",
        "lat": 26.6909,
        "long": -80.0889,
        "name": "Palm Beach International Airport",
        "city": "West Palm Beach",
        "state": "Florida",
        "country": "United States"
      },
      {
        "code": "TPA",
        "lat": 27.9744,
        "long": -82.5356,
        "name": "Tampa International Airport",
        "city": "Tampa",
        "state": "Florida",
        "country": "United States"
      },
      {
        "code": "STL",
        "lat": 38.7414,
        "long": -90.3647,
        "name": "Lambert St Louis International Airport",
        "city": "St. Louis",
        "state": "Missouri",
        "country": "United States"
      }
    ],
    "ageInYears": 17,
    "flightPercentComplete": 15.991249060183431
  }
]
